$GPGGA,170230.303,5421.132,N,01840.295,E,1,12,1.0,0.0,M,0.0,M,,*68
$GPGSA,A,3,01,02,03,04,05,06,07,08,09,10,11,12,1.0,1.0,1.0*30
$GPRMC,170230.303,A,5421.132,N,01840.295,E,000.4,270.0,061019,000.0,W*72
$GPGGA,170231.303,5421.132,N,01840.294,E,1,12,1.0,0.0,M,0.0,M,,*68
$GPGSA,A,3,01,02,03,04,05,06,07,08,09,10,11,12,1.0,1.0,1.0*30
$GPRMC,170231.303,A,5421.132,N,01840.294,E,000.0,000.0,061019,000.0,W*73
$GPGGA,170232.303,5421.132,N,01840.294,E,1,12,1.0,0.0,M,0.0,M,,*6B
$GPGSA,A,3,01,02,03,04,05,06,07,08,09,10,11,12,1.0,1.0,1.0*30
$GPRMC,170232.303,A,5421.132,N,01840.294,E,000.0,000.0,061019,000.0,W*70
$GPGGA,170233.303,5421.132,N,01840.294,E,1,12,1.0,0.0,M,0.0,M,,*6A
$GPGSA,A,3,01,02,03,04,05,06,07,08,09,10,11,12,1.0,1.0,1.0*30
$GPRMC,170233.303,A,5421.132,N,01840.294,E,000.0,000.0,061019,000.0,W*71
$GPGGA,170234.303,5421.132,N,01840.294,E,1,12,1.0,0.0,M,0.0,M,,*6D
$GPGSA,A,3,01,02,03,04,05,06,07,08,09,10,11,12,1.0,1.0,1.0*30
$GPRMC,170234.303,A,5421.132,N,01840.294,E,000.0,000.0,061019,000.0,W*76
$GPGGA,170235.303,5421.132,N,01840.294,E,1,12,1.0,0.0,M,0.0,M,,*6C
$GPGSA,A,3,01,02,03,04,05,06,07,08,09,10,11,12,1.0,1.0,1.0*30
$GPRMC,170235.303,A,5421.132,N,01840.294,E,000.0,000.0,061019,000.0,W*77
$GPGGA,170236.303,5421.132,N,01840.294,E,1,12,1.0,0.0,M,0.0,M,,*6F
$GPGSA,A,3,01,02,03,04,05,06,07,08,09,10,11,12,1.0,1.0,1.0*30
$GPRMC,170236.303,A,5421.132,N,01840.294,E,000.0,000.0,061019,000.0,W*74
$GPGGA,170237.303,5421.132,N,01840.294,E,1,12,1.0,0.0,M,0.0,M,,*6E
$GPGSA,A,3,01,02,03,04,05,06,07,08,09,10,11,12,1.0,1.0,1.0*30
$GPRMC,170237.303,A,5421.132,N,01840.294,E,000.0,000.0,061019,000.0,W*75
$GPGGA,170238.303,5421.132,N,01840.294,E,1,12,1.0,0.0,M,0.0,M,,*61
$GPGSA,A,3,01,02,03,04,05,06,07,08,09,10,11,12,1.0,1.0,1.0*30
$GPRMC,170238.303,A,5421.132,N,01840.294,E,000.0,000.0,061019,000.0,W*7A
$GPGGA,170239.303,5421.132,N,01840.294,E,1,12,1.0,0.0,M,0.0,M,,*60
$GPGSA,A,3,01,02,03,04,05,06,07,08,09,10,11,12,1.0,1.0,1.0*30
$GPRMC,170239.303,A,5421.132,N,01840.294,E,000.0,000.0,061019,000.0,W*7B
$GPGGA,170240.303,5421.132,N,01840.294,E,1,12,1.0,0.0,M,0.0,M,,*6E
$GPGSA,A,3,01,02,03,04,05,06,07,08,09,10,11,12,1.0,1.0,1.0*30
$GPRMC,170240.303,A,5421.132,N,01840.294,E,000.0,000.0,061019,000.0,W*75
$GPGGA,170241.303,5421.132,N,01840.294,E,1,12,1.0,0.0,M,0.0,M,,*6F
$GPGSA,A,3,01,02,03,04,05,06,07,08,09,10,11,12,1.0,1.0,1.0*30
$GPRMC,170241.303,A,5421.132,N,01840.294,E,000.0,000.0,061019,000.0,W*74
$GPGGA,170242.303,5421.132,N,01840.294,E,1,12,1.0,0.0,M,0.0,M,,*6C
$GPGSA,A,3,01,02,03,04,05,06,07,08,09,10,11,12,1.0,1.0,1.0*30
$GPRMC,170242.303,A,5421.132,N,01840.294,E,000.0,000.0,061019,000.0,W*77
$GPGGA,170243.303,5421.132,N,01840.294,E,1,12,1.0,0.0,M,0.0,M,,*6D
$GPGSA,A,3,01,02,03,04,05,06,07,08,09,10,11,12,1.0,1.0,1.0*30
$GPRMC,170243.303,A,5421.132,N,01840.294,E,000.0,000.0,061019,000.0,W*76
$GPGGA,170244.303,5421.132,N,01840.294,E,1,12,1.0,0.0,M,0.0,M,,*6A
$GPGSA,A,3,01,02,03,04,05,06,07,08,09,10,11,12,1.0,1.0,1.0*30
$GPRMC,170244.303,A,5421.132,N,01840.294,E,000.0,000.0,061019,000.0,W*71
$GPGGA,170245.303,5421.132,N,01840.294,E,1,12,1.0,0.0,M,0.0,M,,*6B
$GPGSA,A,3,01,02,03,04,05,06,07,08,09,10,11,12,1.0,1.0,1.0*30
$GPRMC,170245.303,A,5421.132,N,01840.294,E,000.0,000.0,061019,000.0,W*70
$GPGGA,170246.303,5421.132,N,01840.294,E,1,12,1.0,0.0,M,0.0,M,,*68
$GPGSA,A,3,01,02,03,04,05,06,07,08,09,10,11,12,1.0,1.0,1.0*30
$GPRMC,170246.303,A,5421.132,N,01840.294,E,000.0,000.0,061019,000.0,W*73
$GPGGA,170247.303,5421.132,N,01840.294,E,1,12,1.0,0.0,M,0.0,M,,*69
$GPGSA,A,3,01,02,03,04,05,06,07,08,09,10,11,12,1.0,1.0,1.0*30
$GPRMC,170247.303,A,5421.132,N,01840.294,E,000.0,000.0,061019,000.0,W*72
$GPGGA,170248.303,5421.132,N,01840.294,E,1,12,1.0,0.0,M,0.0,M,,*66
$GPGSA,A,3,01,02,03,04,05,06,07,08,09,10,11,12,1.0,1.0,1.0*30
$GPRMC,170248.303,A,5421.132,N,01840.294,E,000.0,000.0,061019,000.0,W*7D
$GPGGA,170249.303,5421.132,N,01840.294,E,1,12,1.0,0.0,M,0.0,M,,*67
$GPGSA,A,3,01,02,03,04,05,06,07,08,09,10,11,12,1.0,1.0,1.0*30
$GPRMC,170249.303,A,5421.132,N,01840.294,E,000.8,220.5,061019,000.0,W*71
$GPGGA,170250.303,5421.132,N,01840.294,E,1,12,1.0,0.0,M,0.0,M,,*6F
$GPGSA,A,3,01,02,03,04,05,06,07,08,09,10,11,12,1.0,1.0,1.0*30
$GPRMC,170250.303,A,5421.132,N,01840.294,E,001.2,228.7,061019,000.0,W*78
$GPGGA,170251.303,5421.132,N,01840.294,E,1,12,1.0,0.0,M,0.0,M,,*6E
$GPGSA,A,3,01,02,03,04,05,06,07,08,09,10,11,12,1.0,1.0,1.0*30
$GPRMC,170251.303,A,5421.132,N,01840.294,E,001.2,228.7,061019,000.0,W*79
$GPGGA,170252.303,5421.131,N,01840.294,E,1,12,1.0,0.0,M,0.0,M,,*6E
$GPGSA,A,3,01,02,03,04,05,06,07,08,09,10,11,12,1.0,1.0,1.0*30
$GPRMC,170252.303,A,5421.131,N,01840.294,E,003.1,235.7,061019,000.0,W*74
$GPGGA,170253.303,5421.131,N,01840.293,E,1,12,1.0,0.0,M,0.0,M,,*68
$GPGSA,A,3,01,02,03,04,05,06,07,08,09,10,11,12,1.0,1.0,1.0*30
$GPRMC,170253.303,A,5421.131,N,01840.293,E,004.1,217.8,061019,000.0,W*7A
$GPGGA,170254.303,5421.130,N,01840.292,E,1,12,1.0,0.0,M,0.0,M,,*6F
$GPGSA,A,3,01,02,03,04,05,06,07,08,09,10,11,12,1.0,1.0,1.0*30
$GPRMC,170254.303,A,5421.130,N,01840.292,E,005.6,227.7,061019,000.0,W*77
$GPGGA,170255.303,5421.128,N,01840.290,E,1,12,1.0,0.0,M,0.0,M,,*65
$GPGSA,A,3,01,02,03,04,05,06,07,08,09,10,11,12,1.0,1.0,1.0*30
$GPRMC,170255.303,A,5421.128,N,01840.290,E,004.5,220.5,061019,000.0,W*7A
$GPGGA,170256.303,5421.127,N,01840.289,E,1,12,1.0,0.0,M,0.0,M,,*61
$GPGSA,A,3,01,02,03,04,05,06,07,08,09,10,11,12,1.0,1.0,1.0*30
$GPRMC,170256.303,A,5421.127,N,01840.289,E,005.9,225.7,061019,000.0,W*74
$GPGGA,170257.303,5421.126,N,01840.288,E,1,12,1.0,0.0,M,0.0,M,,*60
$GPGSA,A,3,01,02,03,04,05,06,07,08,09,10,11,12,1.0,1.0,1.0*30
$GPRMC,170257.303,A,5421.126,N,01840.288,E,005.5,232.7,061019,000.0,W*7F
$GPGGA,170258.303,5421.125,N,01840.286,E,1,12,1.0,0.0,M,0.0,M,,*62
$GPGSA,A,3,01,02,03,04,05,06,07,08,09,10,11,12,1.0,1.0,1.0*30
$GPRMC,170258.303,A,5421.125,N,01840.286,E,005.9,225.7,061019,000.0,W*77
$GPGGA,170259.303,5421.123,N,01840.285,E,1,12,1.0,0.0,M,0.0,M,,*66
$GPGSA,A,3,01,02,03,04,05,06,07,08,09,10,11,12,1.0,1.0,1.0*30
$GPRMC,170259.303,A,5421.123,N,01840.285,E,005.9,225.7,061019,000.0,W*73
$GPGGA,170300.303,5421.122,N,01840.283,E,1,12,1.0,0.0,M,0.0,M,,*6C
$GPGSA,A,3,01,02,03,04,05,06,07,08,09,10,11,12,1.0,1.0,1.0*30
$GPRMC,170300.303,A,5421.122,N,01840.283,E,008.5,228.7,061019,000.0,W*75
$GPGGA,170301.303,5421.120,N,01840.281,E,1,12,1.0,0.0,M,0.0,M,,*6D
$GPGSA,A,3,01,02,03,04,05,06,07,08,09,10,11,12,1.0,1.0,1.0*30
$GPRMC,170301.303,A,5421.120,N,01840.281,E,008.1,228.0,061019,000.0,W*77
$GPGGA,170302.303,5421.118,N,01840.279,E,1,12,1.0,0.0,M,0.0,M,,*62
$GPGSA,A,3,01,02,03,04,05,06,07,08,09,10,11,12,1.0,1.0,1.0*30
$GPRMC,170302.303,A,5421.118,N,01840.279,E,008.0,221.8,061019,000.0,W*78
$GPGGA,170303.303,5421.116,N,01840.277,E,1,12,1.0,0.0,M,0.0,M,,*63
$GPGSA,A,3,01,02,03,04,05,06,07,08,09,10,11,12,1.0,1.0,1.0*30
$GPRMC,170303.303,A,5421.116,N,01840.277,E,007.6,227.2,061019,000.0,W*7C
$GPGGA,170304.303,5421.114,N,01840.275,E,1,12,1.0,0.0,M,0.0,M,,*64
$GPGSA,A,3,01,02,03,04,05,06,07,08,09,10,11,12,1.0,1.0,1.0*30
$GPRMC,170304.303,A,5421.114,N,01840.275,E,011.4,229.2,061019,000.0,W*70
$GPGGA,170305.303,5421.112,N,01840.272,E,1,12,1.0,0.0,M,0.0,M,,*64
$GPGSA,A,3,01,02,03,04,05,06,07,08,09,10,11,12,1.0,1.0,1.0*30
$GPRMC,170305.303,A,5421.112,N,01840.272,E,012.2,222.2,061019,000.0,W*7E
$GPGGA,170306.303,5421.109,N,01840.270,E,1,12,1.0,0.0,M,0.0,M,,*6F
$GPGSA,A,3,01,02,03,04,05,06,07,08,09,10,11,12,1.0,1.0,1.0*30
$GPRMC,170306.303,A,5421.109,N,01840.270,E,010.4,223.5,061019,000.0,W*77
$GPGGA,170307.303,5421.106,N,01840.267,E,1,12,1.0,0.0,M,0.0,M,,*67
$GPGSA,A,3,01,02,03,04,05,06,07,08,09,10,11,12,1.0,1.0,1.0*30
$GPRMC,170307.303,A,5421.106,N,01840.267,E,010.0,222.6,061019,000.0,W*79
$GPGGA,170308.303,5421.104,N,01840.265,E,1,12,1.0,0.0,M,0.0,M,,*68
$GPGSA,A,3,01,02,03,04,05,06,07,08,09,10,11,12,1.0,1.0,1.0*30
$GPRMC,170308.303,A,5421.104,N,01840.265,E,011.2,218.6,061019,000.0,W*7C
$GPGGA,170309.303,5421.101,N,01840.263,E,1,12,1.0,0.0,M,0.0,M,,*6A
$GPGSA,A,3,01,02,03,04,05,06,07,08,09,10,11,12,1.0,1.0,1.0*30
$GPRMC,170309.303,A,5421.101,N,01840.263,E,011.5,222.3,061019,000.0,W*75
$GPGGA,170310.303,5421.098,N,01840.260,E,1,12,1.0,0.0,M,0.0,M,,*60
$GPGSA,A,3,01,02,03,04,05,06,07,08,09,10,11,12,1.0,1.0,1.0*30
$GPRMC,170310.303,A,5421.098,N,01840.260,E,009.7,218.2,061019,000.0,W*7C
$GPGGA,170311.303,5421.096,N,01840.258,E,1,12,1.0,0.0,M,0.0,M,,*64
$GPGSA,A,3,01,02,03,04,05,06,07,08,09,10,11,12,1.0,1.0,1.0*30
$GPRMC,170311.303,A,5421.096,N,01840.258,E,010.1,219.4,061019,000.0,W*71
$GPGGA,170312.303,5421.093,N,01840.256,E,1,12,1.0,0.0,M,0.0,M,,*6C
$GPGSA,A,3,01,02,03,04,05,06,07,08,09,10,11,12,1.0,1.0,1.0*30
$GPRMC,170312.303,A,5421.093,N,01840.256,E,010.0,217.2,061019,000.0,W*70
$GPGGA,170313.303,5421.090,N,01840.254,E,1,12,1.0,0.0,M,0.0,M,,*6C
$GPGSA,A,3,01,02,03,04,05,06,07,08,09,10,11,12,1.0,1.0,1.0*30
$GPRMC,170313.303,A,5421.090,N,01840.254,E,010.4,218.4,061019,000.0,W*7D
$GPGGA,170314.303,5421.088,N,01840.252,E,1,12,1.0,0.0,M,0.0,M,,*64
$GPGSA,A,3,01,02,03,04,05,06,07,08,09,10,11,12,1.0,1.0,1.0*30
$GPRMC,170314.303,A,5421.088,N,01840.252,E,008.8,215.4,061019,000.0,W*7D
$GPGGA,170315.303,5421.086,N,01840.250,E,1,12,1.0,0.0,M,0.0,M,,*69
$GPGSA,A,3,01,02,03,04,05,06,07,08,09,10,11,12,1.0,1.0,1.0*30
$GPRMC,170315.303,A,5421.086,N,01840.250,E,009.7,218.2,061019,000.0,W*75
$GPGGA,170316.303,5421.083,N,01840.249,E,1,12,1.0,0.0,M,0.0,M,,*67
$GPGSA,A,3,01,02,03,04,05,06,07,08,09,10,11,12,1.0,1.0,1.0*30
$GPRMC,170316.303,A,5421.083,N,01840.249,E,009.4,219.3,061019,000.0,W*78
$GPGGA,170317.303,5421.081,N,01840.247,E,1,12,1.0,0.0,M,0.0,M,,*6A
$GPGSA,A,3,01,02,03,04,05,06,07,08,09,10,11,12,1.0,1.0,1.0*30
$GPRMC,170317.303,A,5421.081,N,01840.247,E,009.7,212.3,061019,000.0,W*7D
$GPGGA,170318.303,5421.078,N,01840.245,E,1,12,1.0,0.0,M,0.0,M,,*61
$GPGSA,A,3,01,02,03,04,05,06,07,08,09,10,11,12,1.0,1.0,1.0*30
$GPRMC,170318.303,A,5421.078,N,01840.245,E,009.4,213.3,061019,000.0,W*74
$GPGGA,170319.303,5421.076,N,01840.243,E,1,12,1.0,0.0,M,0.0,M,,*68
$GPGSA,A,3,01,02,03,04,05,06,07,08,09,10,11,12,1.0,1.0,1.0*30
$GPRMC,170319.303,A,5421.076,N,01840.243,E,010.1,219.4,061019,000.0,W*7D
$GPGGA,170320.303,5421.073,N,01840.241,E,1,12,1.0,0.0,M,0.0,M,,*65
$GPGSA,A,3,01,02,03,04,05,06,07,08,09,10,11,12,1.0,1.0,1.0*30
$GPRMC,170320.303,A,5421.073,N,01840.241,E,010.5,212.9,061019,000.0,W*72
$GPGGA,170321.303,5421.071,N,01840.240,E,1,12,1.0,0.0,M,0.0,M,,*67
$GPGSA,A,3,01,02,03,04,05,06,07,08,09,10,11,12,1.0,1.0,1.0*30
$GPRMC,170321.303,A,5421.071,N,01840.240,E,009.8,214.8,061019,000.0,W*72
$GPGGA,170322.303,5421.068,N,01840.238,E,1,12,1.0,0.0,M,0.0,M,,*63
$GPGSA,A,3,01,02,03,04,05,06,07,08,09,10,11,12,1.0,1.0,1.0*30
$GPRMC,170322.303,A,5421.068,N,01840.238,E,010.2,213.9,061019,000.0,W*72
$GPGGA,170323.303,5421.065,N,01840.236,E,1,12,1.0,0.0,M,0.0,M,,*61
$GPGSA,A,3,01,02,03,04,05,06,07,08,09,10,11,12,1.0,1.0,1.0*30
$GPRMC,170323.303,A,5421.065,N,01840.236,E,009.0,211.6,061019,000.0,W*77
$GPGGA,170324.303,5421.063,N,01840.235,E,1,12,1.0,0.0,M,0.0,M,,*63
$GPGSA,A,3,01,02,03,04,05,06,07,08,09,10,11,12,1.0,1.0,1.0*30
$GPRMC,170324.303,A,5421.063,N,01840.235,E,006.2,215.1,061019,000.0,W*7B
$GPGGA,170325.303,5421.061,N,01840.233,E,1,12,1.0,0.0,M,0.0,M,,*66
$GPGSA,A,3,01,02,03,04,05,06,07,08,09,10,11,12,1.0,1.0,1.0*30
$GPRMC,170325.303,A,5421.061,N,01840.233,E,005.3,209.7,061019,000.0,W*77
$GPGGA,170326.303,5421.060,N,01840.233,E,1,12,1.0,0.0,M,0.0,M,,*64
$GPGSA,A,3,01,02,03,04,05,06,07,08,09,10,11,12,1.0,1.0,1.0*30
$GPRMC,170326.303,A,5421.060,N,01840.233,E,004.4,215.4,061019,000.0,W*7D
$GPGGA,170327.303,5421.059,N,01840.232,E,1,12,1.0,0.0,M,0.0,M,,*6E
$GPGSA,A,3,01,02,03,04,05,06,07,08,09,10,11,12,1.0,1.0,1.0*30
$GPRMC,170327.303,A,5421.059,N,01840.232,E,002.9,212.6,061019,000.0,W*79
$GPGGA,170328.303,5421.058,N,01840.231,E,1,12,1.0,0.0,M,0.0,M,,*63
$GPGSA,A,3,01,02,03,04,05,06,07,08,09,10,11,12,1.0,1.0,1.0*30
$GPRMC,170328.303,A,5421.058,N,01840.231,E,002.7,224.3,061019,000.0,W*7A
$GPGGA,170329.303,5421.058,N,01840.231,E,1,12,1.0,0.0,M,0.0,M,,*62
$GPGSA,A,3,01,02,03,04,05,06,07,08,09,10,11,12,1.0,1.0,1.0*30
$GPRMC,170329.303,A,5421.058,N,01840.231,E,001.4,203.1,061019,000.0,W*7C
$GPGGA,170330.303,5421.057,N,01840.230,E,1,12,1.0,0.0,M,0.0,M,,*64
$GPGSA,A,3,01,02,03,04,05,06,07,08,09,10,11,12,1.0,1.0,1.0*30
$GPRMC,170330.303,A,5421.057,N,01840.230,E,001.2,228.7,061019,000.0,W*73
$GPGGA,170331.303,5421.057,N,01840.230,E,1,12,1.0,0.0,M,0.0,M,,*65
$GPGSA,A,3,01,02,03,04,05,06,07,08,09,10,11,12,1.0,1.0,1.0*30
$GPRMC,170331.303,A,5421.057,N,01840.230,E,000.0,000.0,061019,000.0,W*7E
$GPGGA,170332.303,5421.057,N,01840.230,E,1,12,1.0,0.0,M,0.0,M,,*66
$GPGSA,A,3,01,02,03,04,05,06,07,08,09,10,11,12,1.0,1.0,1.0*30
$GPRMC,170332.303,A,5421.057,N,01840.230,E,000.0,000.0,061019,000.0,W*7D
$GPGGA,170333.303,5421.057,N,01840.230,E,1,12,1.0,0.0,M,0.0,M,,*67
$GPGSA,A,3,01,02,03,04,05,06,07,08,09,10,11,12,1.0,1.0,1.0*30
$GPRMC,170333.303,A,5421.057,N,01840.230,E,000.0,000.0,061019,000.0,W*7C
$GPGGA,170334.303,5421.057,N,01840.230,E,1,12,1.0,0.0,M,0.0,M,,*60
$GPGSA,A,3,01,02,03,04,05,06,07,08,09,10,11,12,1.0,1.0,1.0*30
$GPRMC,170334.303,A,5421.057,N,01840.230,E,000.0,000.0,061019,000.0,W*7B
$GPGGA,170335.303,5421.057,N,01840.230,E,1,12,1.0,0.0,M,0.0,M,,*61
$GPGSA,A,3,01,02,03,04,05,06,07,08,09,10,11,12,1.0,1.0,1.0*30
$GPRMC,170335.303,A,5421.057,N,01840.230,E,000.0,000.0,061019,000.0,W*7A
$GPGGA,170336.303,5421.057,N,01840.230,E,1,12,1.0,0.0,M,0.0,M,,*62
$GPGSA,A,3,01,02,03,04,05,06,07,08,09,10,11,12,1.0,1.0,1.0*30
$GPRMC,170336.303,A,5421.057,N,01840.230,E,000.0,000.0,061019,000.0,W*79
$GPGGA,170337.303,5421.057,N,01840.230,E,1,12,1.0,0.0,M,0.0,M,,*63
$GPGSA,A,3,01,02,03,04,05,06,07,08,09,10,11,12,1.0,1.0,1.0*30
$GPRMC,170337.303,A,5421.057,N,01840.230,E,000.0,000.0,061019,000.0,W*78
$GPGGA,170338.303,5421.057,N,01840.230,E,1,12,1.0,0.0,M,0.0,M,,*6C
$GPGSA,A,3,01,02,03,04,05,06,07,08,09,10,11,12,1.0,1.0,1.0*30
$GPRMC,170338.303,A,5421.057,N,01840.230,E,000.0,000.0,061019,000.0,W*77
$GPGGA,170339.303,5421.057,N,01840.230,E,1,12,1.0,0.0,M,0.0,M,,*6D
$GPGSA,A,3,01,02,03,04,05,06,07,08,09,10,11,12,1.0,1.0,1.0*30
$GPRMC,170339.303,A,5421.057,N,01840.230,E,000.0,000.0,061019,000.0,W*76
$GPGGA,170340.303,5421.057,N,01840.230,E,1,12,1.0,0.0,M,0.0,M,,*63
$GPGSA,A,3,01,02,03,04,05,06,07,08,09,10,11,12,1.0,1.0,1.0*30
$GPRMC,170340.303,A,5421.057,N,01840.230,E,000.0,000.0,061019,000.0,W*78
$GPGGA,170341.303,5421.057,N,01840.230,E,1,12,1.0,0.0,M,0.0,M,,*62
$GPGSA,A,3,01,02,03,04,05,06,07,08,09,10,11,12,1.0,1.0,1.0*30
$GPRMC,170341.303,A,5421.057,N,01840.230,E,000.0,000.0,061019,000.0,W*79
$GPGGA,170342.303,5421.057,N,01840.230,E,1,12,1.0,0.0,M,0.0,M,,*61
$GPGSA,A,3,01,02,03,04,05,06,07,08,09,10,11,12,1.0,1.0,1.0*30
$GPRMC,170342.303,A,5421.057,N,01840.230,E,000.0,000.0,061019,000.0,W*7A
$GPGGA,170343.303,5421.057,N,01840.230,E,1,12,1.0,0.0,M,0.0,M,,*60
$GPGSA,A,3,01,02,03,04,05,06,07,08,09,10,11,12,1.0,1.0,1.0*30
$GPRMC,170343.303,A,5421.057,N,01840.230,E,000.4,000.0,061019,000.0,W*7F
$GPGGA,170344.303,5421.057,N,01840.230,E,1,12,1.0,0.0,M,0.0,M,,*67
$GPGSA,A,3,01,02,03,04,05,06,07,08,09,10,11,12,1.0,1.0,1.0*30
$GPRMC,170344.303,A,5421.057,N,01840.230,E,000.0,000.0,061019,000.0,W*7C
$GPGGA,170345.303,5421.057,N,01840.230,E,1,12,1.0,0.0,M,0.0,M,,*66
$GPGSA,A,3,01,02,03,04,05,06,07,08,09,10,11,12,1.0,1.0,1.0*30
$GPRMC,170345.303,A,5421.057,N,01840.230,E,000.0,000.0,061019,000.0,W*7D
$GPGGA,170346.303,5421.057,N,01840.230,E,1,12,1.0,0.0,M,0.0,M,,*65
$GPGSA,A,3,01,02,03,04,05,06,07,08,09,10,11,12,1.0,1.0,1.0*30
$GPRMC,170346.303,A,5421.057,N,01840.230,E,000.0,000.0,061019,000.0,W*7E
$GPGGA,170347.303,5421.057,N,01840.230,E,1,12,1.0,0.0,M,0.0,M,,*64
$GPGSA,A,3,01,02,03,04,05,06,07,08,09,10,11,12,1.0,1.0,1.0*30
$GPRMC,170347.303,A,5421.057,N,01840.230,E,000.0,000.0,061019,000.0,W*7F
$GPGGA,170348.303,5421.057,N,01840.230,E,1,12,1.0,0.0,M,0.0,M,,*6B
$GPGSA,A,3,01,02,03,04,05,06,07,08,09,10,11,12,1.0,1.0,1.0*30
$GPRMC,170348.303,A,5421.057,N,01840.230,E,000.0,000.0,061019,000.0,W*70
$GPGGA,170349.303,5421.057,N,01840.230,E,1,12,1.0,0.0,M,0.0,M,,*6A
$GPGSA,A,3,01,02,03,04,05,06,07,08,09,10,11,12,1.0,1.0,1.0*30
$GPRMC,170349.303,A,5421.057,N,01840.230,E,000.0,000.0,061019,000.0,W*71
$GPGGA,170350.303,5421.057,N,01840.230,E,1,12,1.0,0.0,M,0.0,M,,*62
$GPGSA,A,3,01,02,03,04,05,06,07,08,09,10,11,12,1.0,1.0,1.0*30
$GPRMC,170350.303,A,5421.057,N,01840.230,E,000.0,000.0,061019,000.0,W*79
$GPGGA,170351.303,5421.057,N,01840.230,E,1,12,1.0,0.0,M,0.0,M,,*63
$GPGSA,A,3,01,02,03,04,05,06,07,08,09,10,11,12,1.0,1.0,1.0*30
$GPRMC,170351.303,A,5421.057,N,01840.230,E,000.4,000.0,061019,000.0,W*7C
$GPGGA,170352.303,5421.057,N,01840.230,E,1,12,1.0,0.0,M,0.0,M,,*60
$GPGSA,A,3,01,02,03,04,05,06,07,08,09,10,11,12,1.0,1.0,1.0*30
$GPRMC,170352.303,A,5421.057,N,01840.230,E,000.2,000.0,061019,000.0,W*79
$GPGGA,170353.303,5421.057,N,01840.230,E,1,12,1.0,0.0,M,0.0,M,,*61
$GPGSA,A,3,01,02,03,04,05,06,07,08,09,10,11,12,1.0,1.0,1.0*30
$GPRMC,170353.303,A,5421.057,N,01840.230,E,000.2,000.0,061019,000.0,W*78
$GPGGA,170354.303,5421.057,N,01840.230,E,1,12,1.0,0.0,M,0.0,M,,*66
$GPGSA,A,3,01,02,03,04,05,06,07,08,09,10,11,12,1.0,1.0,1.0*30
$GPRMC,170354.303,A,5421.057,N,01840.230,E,000.2,000.0,061019,000.0,W*7F
$GPGGA,170355.303,5421.057,N,01840.230,E,1,12,1.0,0.0,M,0.0,M,,*67
$GPGSA,A,3,01,02,03,04,05,06,07,08,09,10,11,12,1.0,1.0,1.0*30
$GPRMC,170355.303,A,5421.057,N,01840.230,E,000.2,000.0,061019,000.0,W*7E
$GPGGA,170356.303,5421.057,N,01840.230,E,1,12,1.0,0.0,M,0.0,M,,*64
$GPGSA,A,3,01,02,03,04,05,06,07,08,09,10,11,12,1.0,1.0,1.0*30
$GPRMC,170356.303,A,5421.057,N,01840.230,E,000.4,090.0,061019,000.0,W*72
$GPGGA,170357.303,5421.057,N,01840.230,E,1,12,1.0,0.0,M,0.0,M,,*65
$GPGSA,A,3,01,02,03,04,05,06,07,08,09,10,11,12,1.0,1.0,1.0*30
$GPRMC,170357.303,A,5421.057,N,01840.230,E,000.2,000.0,061019,000.0,W*7C
$GPGGA,170358.303,5421.057,N,01840.230,E,1,12,1.0,0.0,M,0.0,M,,*6A
$GPGSA,A,3,01,02,03,04,05,06,07,08,09,10,11,12,1.0,1.0,1.0*30
$GPRMC,170358.303,A,5421.057,N,01840.230,E,000.2,000.0,061019,000.0,W*73
$GPGGA,170359.303,5421.057,N,01840.230,E,1,12,1.0,0.0,M,0.0,M,,*6B
$GPGSA,A,3,01,02,03,04,05,06,07,08,09,10,11,12,1.0,1.0,1.0*30
$GPRMC,170359.303,A,5421.057,N,01840.230,E,002.5,206.0,061019,000.0,W*73
$GPGGA,170400.303,5421.056,N,01840.230,E,1,12,1.0,0.0,M,0.0,M,,*61
$GPGSA,A,3,01,02,03,04,05,06,07,08,09,10,11,12,1.0,1.0,1.0*30
$GPRMC,170400.303,A,5421.056,N,01840.230,E,002.9,212.6,061019,000.0,W*76
$GPGGA,170401.303,5421.056,N,01840.230,E,1,12,1.0,0.0,M,0.0,M,,*60
$GPGSA,A,3,01,02,03,04,05,06,07,08,09,10,11,12,1.0,1.0,1.0*30
$GPRMC,170401.303,A,5421.056,N,01840.230,E,004.1,217.8,061019,000.0,W*72
$GPGGA,170402.303,5421.055,N,01840.229,E,1,12,1.0,0.0,M,0.0,M,,*68
$GPGSA,A,3,01,02,03,04,05,06,07,08,09,10,11,12,1.0,1.0,1.0*30
$GPRMC,170402.303,A,5421.055,N,01840.229,E,005.9,216.8,061019,000.0,W*72
$GPGGA,170403.303,5421.053,N,01840.228,E,1,12,1.0,0.0,M,0.0,M,,*6E
$GPGSA,A,3,01,02,03,04,05,06,07,08,09,10,11,12,1.0,1.0,1.0*30
$GPRMC,170403.303,A,5421.053,N,01840.228,E,008.3,213.8,061019,000.0,W*76
$GPGGA,170404.303,5421.051,N,01840.226,E,1,12,1.0,0.0,M,0.0,M,,*65
$GPGSA,A,3,01,02,03,04,05,06,07,08,09,10,11,12,1.0,1.0,1.0*30
$GPRMC,170404.303,A,5421.051,N,01840.226,E,007.5,209.7,061019,000.0,W*70
$GPGGA,170405.303,5421.049,N,01840.225,E,1,12,1.0,0.0,M,0.0,M,,*6E
$GPGSA,A,3,01,02,03,04,05,06,07,08,09,10,11,12,1.0,1.0,1.0*30
$GPRMC,170405.303,A,5421.049,N,01840.225,E,006.4,209.7,061019,000.0,W*7B
$GPGGA,170406.303,5421.047,N,01840.224,E,1,12,1.0,0.0,M,0.0,M,,*62
$GPGSA,A,3,01,02,03,04,05,06,07,08,09,10,11,12,1.0,1.0,1.0*30
$GPRMC,170406.303,A,5421.047,N,01840.224,E,006.7,208.3,061019,000.0,W*71
$GPGGA,170407.303,5421.046,N,01840.223,E,1,12,1.0,0.0,M,0.0,M,,*65
$GPGSA,A,3,01,02,03,04,05,06,07,08,09,10,11,12,1.0,1.0,1.0*30
$GPRMC,170407.303,A,5421.046,N,01840.223,E,009.2,207.7,061019,000.0,W*77
$GPGGA,170408.303,5421.043,N,01840.222,E,1,12,1.0,0.0,M,0.0,M,,*6E
$GPGSA,A,3,01,02,03,04,05,06,07,08,09,10,11,12,1.0,1.0,1.0*30
$GPRMC,170408.303,A,5421.043,N,01840.222,E,007.8,208.5,061019,000.0,W*75
$GPGGA,170409.303,5421.041,N,01840.221,E,1,12,1.0,0.0,M,0.0,M,,*6E
$GPGSA,A,3,01,02,03,04,05,06,07,08,09,10,11,12,1.0,1.0,1.0*30
$GPRMC,170409.303,A,5421.041,N,01840.221,E,009.3,210.6,061019,000.0,W*7A
$GPGGA,170410.303,5421.039,N,01840.219,E,1,12,1.0,0.0,M,0.0,M,,*62
$GPGSA,A,3,01,02,03,04,05,06,07,08,09,10,11,12,1.0,1.0,1.0*30
$GPRMC,170410.303,A,5421.039,N,01840.219,E,009.1,204.7,061019,000.0,W*70
$GPGGA,170411.303,5421.036,N,01840.218,E,1,12,1.0,0.0,M,0.0,M,,*6D
$GPGSA,A,3,01,02,03,04,05,06,07,08,09,10,11,12,1.0,1.0,1.0*30
$GPRMC,170411.303,A,5421.036,N,01840.218,E,008.8,205.6,061019,000.0,W*77
$GPGGA,170412.303,5421.034,N,01840.217,E,1,12,1.0,0.0,M,0.0,M,,*63
$GPGSA,A,3,01,02,03,04,05,06,07,08,09,10,11,12,1.0,1.0,1.0*30
$GPRMC,170412.303,A,5421.034,N,01840.217,E,009.7,200.1,061019,000.0,W*75
$GPGGA,170413.303,5421.031,N,01840.216,E,1,12,1.0,0.0,M,0.0,M,,*66
$GPGSA,A,3,01,02,03,04,05,06,07,08,09,10,11,12,1.0,1.0,1.0*30
$GPRMC,170413.303,A,5421.031,N,01840.216,E,011.1,200.5,061019,000.0,W*7B
$GPGGA,170414.303,5421.028,N,01840.215,E,1,12,1.0,0.0,M,0.0,M,,*6A
$GPGSA,A,3,01,02,03,04,05,06,07,08,09,10,11,12,1.0,1.0,1.0*30
$GPRMC,170414.303,A,5421.028,N,01840.215,E,009.9,208.8,061019,000.0,W*73
$GPGGA,170415.303,5421.026,N,01840.213,E,1,12,1.0,0.0,M,0.0,M,,*63
$GPGSA,A,3,01,02,03,04,05,06,07,08,09,10,11,12,1.0,1.0,1.0*30
$GPRMC,170415.303,A,5421.026,N,01840.213,E,010.4,201.7,061019,000.0,W*79
$GPGGA,170416.303,5421.023,N,01840.212,E,1,12,1.0,0.0,M,0.0,M,,*64
$GPGSA,A,3,01,02,03,04,05,06,07,08,09,10,11,12,1.0,1.0,1.0*30
$GPRMC,170416.303,A,5421.023,N,01840.212,E,010.0,199.5,061019,000.0,W*7A
$GPGGA,170417.303,5421.020,N,01840.211,E,1,12,1.0,0.0,M,0.0,M,,*65
$GPGSA,A,3,01,02,03,04,05,06,07,08,09,10,11,12,1.0,1.0,1.0*30
$GPRMC,170417.303,A,5421.020,N,01840.211,E,009.3,197.6,061019,000.0,W*7D
$GPGGA,170418.303,5421.017,N,01840.211,E,1,12,1.0,0.0,M,0.0,M,,*6E
$GPGSA,A,3,01,02,03,04,05,06,07,08,09,10,11,12,1.0,1.0,1.0*30
$GPRMC,170418.303,A,5421.017,N,01840.211,E,009.8,203.1,061019,000.0,W*74
$GPGGA,170419.303,5421.015,N,01840.209,E,1,12,1.0,0.0,M,0.0,M,,*64
$GPGSA,A,3,01,02,03,04,05,06,07,08,09,10,11,12,1.0,1.0,1.0*30
$GPRMC,170419.303,A,5421.015,N,01840.209,E,009.3,200.8,061019,000.0,W*7F
$GPGGA,170420.303,5421.012,N,01840.208,E,1,12,1.0,0.0,M,0.0,M,,*68
$GPGSA,A,3,01,02,03,04,05,06,07,08,09,10,11,12,1.0,1.0,1.0*30
$GPRMC,170420.303,A,5421.012,N,01840.208,E,009.7,200.1,061019,000.0,W*7E
$GPGGA,170421.303,5421.010,N,01840.207,E,1,12,1.0,0.0,M,0.0,M,,*64
$GPGSA,A,3,01,02,03,04,05,06,07,08,09,10,11,12,1.0,1.0,1.0*30
$GPRMC,170421.303,A,5421.010,N,01840.207,E,009.1,204.7,061019,000.0,W*76
$GPGGA,170422.303,5421.007,N,01840.206,E,1,12,1.0,0.0,M,0.0,M,,*60
$GPGSA,A,3,01,02,03,04,05,06,07,08,09,10,11,12,1.0,1.0,1.0*30
$GPRMC,170422.303,A,5421.007,N,01840.206,E,009.6,197.0,061019,000.0,W*7B
$GPGGA,170423.303,5421.005,N,01840.206,E,1,12,1.0,0.0,M,0.0,M,,*63
$GPGSA,A,3,01,02,03,04,05,06,07,08,09,10,11,12,1.0,1.0,1.0*30
$GPRMC,170423.303,A,5421.005,N,01840.206,E,010.3,198.9,061019,000.0,W*73
$GPGGA,170424.303,5421.002,N,01840.205,E,1,12,1.0,0.0,M,0.0,M,,*60
$GPGSA,A,3,01,02,03,04,05,06,07,08,09,10,11,12,1.0,1.0,1.0*30
$GPRMC,170424.303,A,5421.002,N,01840.205,E,010.2,192.8,061019,000.0,W*7A
$GPGGA,170425.303,5420.999,N,01840.204,E,1,12,1.0,0.0,M,0.0,M,,*6A
$GPGSA,A,3,01,02,03,04,05,06,07,08,09,10,11,12,1.0,1.0,1.0*30
$GPRMC,170425.303,A,5420.999,N,01840.204,E,010.9,194.9,061019,000.0,W*7C
$GPGGA,170426.303,5420.996,N,01840.203,E,1,12,1.0,0.0,M,0.0,M,,*61
$GPGSA,A,3,01,02,03,04,05,06,07,08,09,10,11,12,1.0,1.0,1.0*30
$GPRMC,170426.303,A,5420.996,N,01840.203,E,010.9,192.1,061019,000.0,W*79
$GPGGA,170427.303,5420.993,N,01840.202,E,1,12,1.0,0.0,M,0.0,M,,*64
$GPGSA,A,3,01,02,03,04,05,06,07,08,09,10,11,12,1.0,1.0,1.0*30
$GPRMC,170427.303,A,5420.993,N,01840.202,E,009.9,193.3,061019,000.0,W*77
$GPGGA,170428.303,5420.990,N,01840.202,E,1,12,1.0,0.0,M,0.0,M,,*68
$GPGSA,A,3,01,02,03,04,05,06,07,08,09,10,11,12,1.0,1.0,1.0*30
$GPRMC,170428.303,A,5420.990,N,01840.202,E,009.6,197.0,061019,000.0,W*73
$GPGGA,170429.303,5420.988,N,01840.201,E,1,12,1.0,0.0,M,0.0,M,,*63
$GPGSA,A,3,01,02,03,04,05,06,07,08,09,10,11,12,1.0,1.0,1.0*30
$GPRMC,170429.303,A,5420.988,N,01840.201,E,009.9,190.0,061019,000.0,W*70
$GPGGA,170430.303,5420.985,N,01840.201,E,1,12,1.0,0.0,M,0.0,M,,*66
$GPGSA,A,3,01,02,03,04,05,06,07,08,09,10,11,12,1.0,1.0,1.0*30
$GPRMC,170430.303,A,5420.985,N,01840.201,E,010.2,189.7,061019,000.0,W*79
$GPGGA,170431.303,5420.982,N,01840.200,E,1,12,1.0,0.0,M,0.0,M,,*61
$GPGSA,A,3,01,02,03,04,05,06,07,08,09,10,11,12,1.0,1.0,1.0*30
$GPRMC,170431.303,A,5420.982,N,01840.200,E,009.8,186.7,061019,000.0,W*73
$GPGGA,170432.303,5420.979,N,01840.200,E,1,12,1.0,0.0,M,0.0,M,,*66
$GPGSA,A,3,01,02,03,04,05,06,07,08,09,10,11,12,1.0,1.0,1.0*30
$GPRMC,170432.303,A,5420.979,N,01840.200,E,009.5,187.0,061019,000.0,W*7F
$GPGGA,170433.303,5420.977,N,01840.199,E,1,12,1.0,0.0,M,0.0,M,,*6A
$GPGSA,A,3,01,02,03,04,05,06,07,08,09,10,11,12,1.0,1.0,1.0*30
$GPRMC,170433.303,A,5420.977,N,01840.199,E,009.9,190.0,061019,000.0,W*79
$GPGGA,170434.303,5420.974,N,01840.199,E,1,12,1.0,0.0,M,0.0,M,,*6E
$GPGSA,A,3,01,02,03,04,05,06,07,08,09,10,11,12,1.0,1.0,1.0*30
$GPRMC,170434.303,A,5420.974,N,01840.199,E,010.8,183.1,061019,000.0,W*77
$GPGGA,170435.303,5420.971,N,01840.199,E,1,12,1.0,0.0,M,0.0,M,,*6A
$GPGSA,A,3,01,02,03,04,05,06,07,08,09,10,11,12,1.0,1.0,1.0*30
$GPRMC,170435.303,A,5420.971,N,01840.199,E,008.8,183.8,061019,000.0,W*73
$GPGGA,170436.303,5420.969,N,01840.199,E,1,12,1.0,0.0,M,0.0,M,,*60
$GPGSA,A,3,01,02,03,04,05,06,07,08,09,10,11,12,1.0,1.0,1.0*30
$GPRMC,170436.303,A,5420.969,N,01840.199,E,009.1,187.2,061019,000.0,W*7F
$GPGGA,170437.303,5420.966,N,01840.198,E,1,12,1.0,0.0,M,0.0,M,,*6F
$GPGSA,A,3,01,02,03,04,05,06,07,08,09,10,11,12,1.0,1.0,1.0*30
$GPRMC,170437.303,A,5420.966,N,01840.198,E,008.8,180.0,061019,000.0,W*7D
$GPGGA,170438.303,5420.964,N,01840.198,E,1,12,1.0,0.0,M,0.0,M,,*62
$GPGSA,A,3,01,02,03,04,05,06,07,08,09,10,11,12,1.0,1.0,1.0*30
$GPRMC,170438.303,A,5420.964,N,01840.198,E,008.1,188.1,061019,000.0,W*70
$GPGGA,170439.303,5420.961,N,01840.198,E,1,12,1.0,0.0,M,0.0,M,,*66
$GPGSA,A,3,01,02,03,04,05,06,07,08,09,10,11,12,1.0,1.0,1.0*30
$GPRMC,170439.303,A,5420.961,N,01840.198,E,009.8,183.4,061019,000.0,W*72
$GPGGA,170440.303,5420.959,N,01840.198,E,1,12,1.0,0.0,M,0.0,M,,*63
$GPGSA,A,3,01,02,03,04,05,06,07,08,09,10,11,12,1.0,1.0,1.0*30
$GPRMC,170440.303,A,5420.959,N,01840.198,E,009.8,183.4,061019,000.0,W*77
$GPGGA,170441.303,5420.956,N,01840.198,E,1,12,1.0,0.0,M,0.0,M,,*6D
$GPGSA,A,3,01,02,03,04,05,06,07,08,09,10,11,12,1.0,1.0,1.0*30
$GPRMC,170441.303,A,5420.956,N,01840.198,E,009.5,187.0,061019,000.0,W*74
$GPGGA,170442.303,5420.953,N,01840.197,E,1,12,1.0,0.0,M,0.0,M,,*64
$GPGSA,A,3,01,02,03,04,05,06,07,08,09,10,11,12,1.0,1.0,1.0*30
$GPRMC,170442.303,A,5420.953,N,01840.197,E,009.8,183.4,061019,000.0,W*70
$GPGGA,170443.303,5420.951,N,01840.197,E,1,12,1.0,0.0,M,0.0,M,,*67
$GPGSA,A,3,01,02,03,04,05,06,07,08,09,10,11,12,1.0,1.0,1.0*30
$GPRMC,170443.303,A,5420.951,N,01840.197,E,009.2,190.7,061019,000.0,W*78
$GPGGA,170444.303,5420.948,N,01840.197,E,1,12,1.0,0.0,M,0.0,M,,*68
$GPGSA,A,3,01,02,03,04,05,06,07,08,09,10,11,12,1.0,1.0,1.0*30
$GPRMC,170444.303,A,5420.948,N,01840.197,E,009.5,180.0,061019,000.0,W*76
$GPGGA,170445.303,5420.945,N,01840.197,E,1,12,1.0,0.0,M,0.0,M,,*64
$GPGSA,A,3,01,02,03,04,05,06,07,08,09,10,11,12,1.0,1.0,1.0*30
$GPRMC,170445.303,A,5420.945,N,01840.197,E,009.9,190.0,061019,000.0,W*77
$GPGGA,170446.303,5420.943,N,01840.196,E,1,12,1.0,0.0,M,0.0,M,,*60
$GPGSA,A,3,01,02,03,04,05,06,07,08,09,10,11,12,1.0,1.0,1.0*30
$GPRMC,170446.303,A,5420.943,N,01840.196,E,010.5,180.0,061019,000.0,W*76
$GPGGA,170447.303,5420.940,N,01840.196,E,1,12,1.0,0.0,M,0.0,M,,*62
$GPGSA,A,3,01,02,03,04,05,06,07,08,09,10,11,12,1.0,1.0,1.0*30
$GPRMC,170447.303,A,5420.940,N,01840.196,E,009.3,200.8,061019,000.0,W*79
$GPGGA,170448.303,5420.937,N,01840.195,E,1,12,1.0,0.0,M,0.0,M,,*6E
$GPGSA,A,3,01,02,03,04,05,06,07,08,09,10,11,12,1.0,1.0,1.0*30
$GPRMC,170448.303,A,5420.937,N,01840.195,E,009.9,190.0,061019,000.0,W*7D
$GPGGA,170449.303,5420.935,N,01840.195,E,1,12,1.0,0.0,M,0.0,M,,*6D
$GPGSA,A,3,01,02,03,04,05,06,07,08,09,10,11,12,1.0,1.0,1.0*30
$GPRMC,170449.303,A,5420.935,N,01840.195,E,010.5,189.4,061019,000.0,W*76
$GPGGA,170450.303,5420.932,N,01840.194,E,1,12,1.0,0.0,M,0.0,M,,*63
$GPGSA,A,3,01,02,03,04,05,06,07,08,09,10,11,12,1.0,1.0,1.0*30
$GPRMC,170450.303,A,5420.932,N,01840.194,E,009.8,203.1,061019,000.0,W*79
$GPGGA,170451.303,5420.929,N,01840.193,E,1,12,1.0,0.0,M,0.0,M,,*6F
$GPGSA,A,3,01,02,03,04,05,06,07,08,09,10,11,12,1.0,1.0,1.0*30
$GPRMC,170451.303,A,5420.929,N,01840.193,E,009.8,203.1,061019,000.0,W*75
$GPGGA,170452.303,5420.926,N,01840.192,E,1,12,1.0,0.0,M,0.0,M,,*62
$GPGSA,A,3,01,02,03,04,05,06,07,08,09,10,11,12,1.0,1.0,1.0*30
$GPRMC,170452.303,A,5420.926,N,01840.192,E,010.5,204.5,061019,000.0,W*7E
$GPGGA,170453.303,5420.924,N,01840.191,E,1,12,1.0,0.0,M,0.0,M,,*62
$GPGSA,A,3,01,02,03,04,05,06,07,08,09,10,11,12,1.0,1.0,1.0*30
$GPRMC,170453.303,A,5420.924,N,01840.191,E,009.6,209.7,061019,000.0,W*7A
$GPGGA,170454.303,5420.921,N,01840.189,E,1,12,1.0,0.0,M,0.0,M,,*69
$GPGSA,A,3,01,02,03,04,05,06,07,08,09,10,11,12,1.0,1.0,1.0*30
$GPRMC,170454.303,A,5420.921,N,01840.189,E,011.9,204.3,061019,000.0,W*7E
$GPGGA,170455.303,5420.918,N,01840.188,E,1,12,1.0,0.0,M,0.0,M,,*63
$GPGSA,A,3,01,02,03,04,05,06,07,08,09,10,11,12,1.0,1.0,1.0*30
$GPRMC,170455.303,A,5420.918,N,01840.188,E,011.4,210.4,061019,000.0,W*7B
$GPGGA,170456.303,5420.915,N,01840.186,E,1,12,1.0,0.0,M,0.0,M,,*63
$GPGSA,A,3,01,02,03,04,05,06,07,08,09,10,11,12,1.0,1.0,1.0*30
$GPRMC,170456.303,A,5420.915,N,01840.186,E,010.9,206.4,061019,000.0,W*70
$GPGGA,170457.303,5420.912,N,01840.185,E,1,12,1.0,0.0,M,0.0,M,,*66
$GPGSA,A,3,01,02,03,04,05,06,07,08,09,10,11,12,1.0,1.0,1.0*30
$GPRMC,170457.303,A,5420.912,N,01840.185,E,010.6,207.1,061019,000.0,W*7E
$GPGGA,170458.303,5420.909,N,01840.183,E,1,12,1.0,0.0,M,0.0,M,,*65
$GPGSA,A,3,01,02,03,04,05,06,07,08,09,10,11,12,1.0,1.0,1.0*30
$GPRMC,170458.303,A,5420.909,N,01840.183,E,009.8,206.0,061019,000.0,W*7B
$GPGGA,170459.303,5420.907,N,01840.182,E,1,12,1.0,0.0,M,0.0,M,,*6B
$GPGSA,A,3,01,02,03,04,05,06,07,08,09,10,11,12,1.0,1.0,1.0*30
$GPRMC,170459.303,A,5420.907,N,01840.182,E,010.1,202.4,061019,000.0,W*74
$GPGGA,170500.303,5420.904,N,01840.181,E,1,12,1.0,0.0,M,0.0,M,,*66
$GPGSA,A,3,01,02,03,04,05,06,07,08,09,10,11,12,1.0,1.0,1.0*30
$GPRMC,170500.303,A,5420.904,N,01840.181,E,010.4,210.5,061019,000.0,W*7E
$GPGGA,170501.303,5420.901,N,01840.179,E,1,12,1.0,0.0,M,0.0,M,,*65
$GPGSA,A,3,01,02,03,04,05,06,07,08,09,10,11,12,1.0,1.0,1.0*30
$GPRMC,170501.303,A,5420.901,N,01840.179,E,010.0,211.4,061019,000.0,W*79
$GPGGA,170502.303,5420.898,N,01840.178,E,1,12,1.0,0.0,M,0.0,M,,*66
$GPGSA,A,3,01,02,03,04,05,06,07,08,09,10,11,12,1.0,1.0,1.0*30
$GPRMC,170502.303,A,5420.898,N,01840.178,E,009.8,206.0,061019,000.0,W*78
$GPGGA,170503.303,5420.896,N,01840.176,E,1,12,1.0,0.0,M,0.0,M,,*67
$GPGSA,A,3,01,02,03,04,05,06,07,08,09,10,11,12,1.0,1.0,1.0*30
$GPRMC,170503.303,A,5420.896,N,01840.176,E,009.7,200.1,061019,000.0,W*71
$GPGGA,170504.303,5420.893,N,01840.175,E,1,12,1.0,0.0,M,0.0,M,,*66
$GPGSA,A,3,01,02,03,04,05,06,07,08,09,10,11,12,1.0,1.0,1.0*30
$GPRMC,170504.303,A,5420.893,N,01840.175,E,010.8,212.1,061019,000.0,W*74
$GPGGA,170505.303,5420.890,N,01840.174,E,1,12,1.0,0.0,M,0.0,M,,*65
$GPGSA,A,3,01,02,03,04,05,06,07,08,09,10,11,12,1.0,1.0,1.0*30
$GPRMC,170505.303,A,5420.890,N,01840.174,E,009.8,206.0,061019,000.0,W*7B
$GPGGA,170506.303,5420.888,N,01840.172,E,1,12,1.0,0.0,M,0.0,M,,*69
$GPGSA,A,3,01,02,03,04,05,06,07,08,09,10,11,12,1.0,1.0,1.0*30
$GPRMC,170506.303,A,5420.888,N,01840.172,E,009.9,196.4,061019,000.0,W*78
$GPGGA,170507.303,5420.885,N,01840.171,E,1,12,1.0,0.0,M,0.0,M,,*66
$GPGSA,A,3,01,02,03,04,05,06,07,08,09,10,11,12,1.0,1.0,1.0*30
$GPRMC,170507.303,A,5420.885,N,01840.171,E,010.4,201.7,061019,000.0,W*7C
$GPGGA,170508.303,5420.882,N,01840.170,E,1,12,1.0,0.0,M,0.0,M,,*6F
$GPGSA,A,3,01,02,03,04,05,06,07,08,09,10,11,12,1.0,1.0,1.0*30
$GPRMC,170508.303,A,5420.882,N,01840.170,E,010.9,206.4,061019,000.0,W*7C
$GPGGA,170509.303,5420.879,N,01840.169,E,1,12,1.0,0.0,M,0.0,M,,*62
$GPGSA,A,3,01,02,03,04,05,06,07,08,09,10,11,12,1.0,1.0,1.0*30
$GPRMC,170509.303,A,5420.879,N,01840.169,E,009.4,203.9,061019,000.0,W*7C
$GPGGA,170510.303,5420.877,N,01840.168,E,1,12,1.0,0.0,M,0.0,M,,*65
$GPGSA,A,3,01,02,03,04,05,06,07,08,09,10,11,12,1.0,1.0,1.0*30
$GPRMC,170510.303,A,5420.877,N,01840.168,E,008.0,200.4,061019,000.0,W*70
$GPGGA,170511.303,5420.875,N,01840.167,E,1,12,1.0,0.0,M,0.0,M,,*69
$GPGSA,A,3,01,02,03,04,05,06,07,08,09,10,11,12,1.0,1.0,1.0*30
$GPRMC,170511.303,A,5420.875,N,01840.167,E,006.9,198.9,061019,000.0,W*74
$GPGGA,170512.303,5420.873,N,01840.166,E,1,12,1.0,0.0,M,0.0,M,,*6D
$GPGSA,A,3,01,02,03,04,05,06,07,08,09,10,11,12,1.0,1.0,1.0*30
$GPRMC,170512.303,A,5420.873,N,01840.166,E,007.2,198.0,061019,000.0,W*73
$GPGGA,170513.303,5420.871,N,01840.166,E,1,12,1.0,0.0,M,0.0,M,,*6E
$GPGSA,A,3,01,02,03,04,05,06,07,08,09,10,11,12,1.0,1.0,1.0*30
$GPRMC,170513.303,A,5420.871,N,01840.166,E,004.5,201.5,061019,000.0,W*72
$GPGGA,170514.303,5420.870,N,01840.165,E,1,12,1.0,0.0,M,0.0,M,,*6B
$GPGSA,A,3,01,02,03,04,05,06,07,08,09,10,11,12,1.0,1.0,1.0*30
$GPRMC,170514.303,A,5420.870,N,01840.165,E,005.6,203.1,061019,000.0,W*73
$GPGGA,170515.303,5420.868,N,01840.165,E,1,12,1.0,0.0,M,0.0,M,,*63
$GPGSA,A,3,01,02,03,04,05,06,07,08,09,10,11,12,1.0,1.0,1.0*30
$GPRMC,170515.303,A,5420.868,N,01840.165,E,002.1,195.9,061019,000.0,W*7F
$GPGGA,170516.303,5420.867,N,01840.164,E,1,12,1.0,0.0,M,0.0,M,,*6E
$GPGSA,A,3,01,02,03,04,05,06,07,08,09,10,11,12,1.0,1.0,1.0*30
$GPRMC,170516.303,A,5420.867,N,01840.164,E,002.8,203.1,061019,000.0,W*7F
$GPGGA,170517.303,5420.867,N,01840.164,E,1,12,1.0,0.0,M,0.0,M,,*6F
$GPGSA,A,3,01,02,03,04,05,06,07,08,09,10,11,12,1.0,1.0,1.0*30
$GPRMC,170517.303,A,5420.867,N,01840.164,E,002.1,209.7,061019,000.0,W*7B
$GPGGA,170518.303,5420.866,N,01840.164,E,1,12,1.0,0.0,M,0.0,M,,*61
$GPGSA,A,3,01,02,03,04,05,06,07,08,09,10,11,12,1.0,1.0,1.0*30
$GPRMC,170518.303,A,5420.866,N,01840.164,E,003.1,200.8,061019,000.0,W*72
$GPGGA,170519.303,5420.865,N,01840.163,E,1,12,1.0,0.0,M,0.0,M,,*64
$GPGSA,A,3,01,02,03,04,05,06,07,08,09,10,11,12,1.0,1.0,1.0*30
$GPRMC,170519.303,A,5420.865,N,01840.163,E,001.1,209.7,061019,000.0,W*73
$GPGGA,170520.303,5420.865,N,01840.163,E,1,12,1.0,0.0,M,0.0,M,,*6E
$GPGSA,A,3,01,02,03,04,05,06,07,08,09,10,11,12,1.0,1.0,1.0*30
$GPRMC,170520.303,A,5420.865,N,01840.163,E,001.8,214.3,061019,000.0,W*78
$GPGGA,170521.303,5420.865,N,01840.163,E,1,12,1.0,0.0,M,0.0,M,,*6F
$GPGSA,A,3,01,02,03,04,05,06,07,08,09,10,11,12,1.0,1.0,1.0*30
$GPRMC,170521.303,A,5420.865,N,01840.163,E,000.5,059.6,061019,000.0,W*7B
$GPGGA,170522.303,5420.865,N,01840.163,E,1,12,1.0,0.0,M,0.0,M,,*6C
$GPGSA,A,3,01,02,03,04,05,06,07,08,09,10,11,12,1.0,1.0,1.0*30
$GPRMC,170522.303,A,5420.865,N,01840.163,E,000.7,180.0,061019,000.0,W*79
$GPGGA,170523.303,5420.864,N,01840.163,E,1,12,1.0,0.0,M,0.0,M,,*6C
$GPGSA,A,3,01,02,03,04,05,06,07,08,09,10,11,12,1.0,1.0,1.0*30
$GPRMC,170523.303,A,5420.864,N,01840.163,E,000.0,000.0,061019,000.0,W*77
$GPGGA,170524.303,5420.864,N,01840.163,E,1,12,1.0,0.0,M,0.0,M,,*6B
$GPGSA,A,3,01,02,03,04,05,06,07,08,09,10,11,12,1.0,1.0,1.0*30
$GPRMC,170524.303,A,5420.864,N,01840.163,E,000.4,270.0,061019,000.0,W*71
$GPGGA,170525.303,5420.864,N,01840.163,E,1,12,1.0,0.0,M,0.0,M,,*6A
$GPGSA,A,3,01,02,03,04,05,06,07,08,09,10,11,12,1.0,1.0,1.0*30
$GPRMC,170525.303,A,5420.864,N,01840.163,E,001.4,203.1,061019,000.0,W*74
$GPGGA,170526.303,5420.864,N,01840.163,E,1,12,1.0,0.0,M,0.0,M,,*69
$GPGSA,A,3,01,02,03,04,05,06,07,08,09,10,11,12,1.0,1.0,1.0*30
$GPRMC,170526.303,A,5420.864,N,01840.163,E,000.0,000.0,061019,000.0,W*72
$GPGGA,170527.303,5420.864,N,01840.163,E,1,12,1.0,0.0,M,0.0,M,,*68
$GPGSA,A,3,01,02,03,04,05,06,07,08,09,10,11,12,1.0,1.0,1.0*30
$GPRMC,170527.303,A,5420.864,N,01840.163,E,000.4,180.0,061019,000.0,W*7E
$GPGGA,170528.303,5420.864,N,01840.163,E,1,12,1.0,0.0,M,0.0,M,,*67
$GPGSA,A,3,01,02,03,04,05,06,07,08,09,10,11,12,1.0,1.0,1.0*30
$GPRMC,170528.303,A,5420.864,N,01840.163,E,000.3,180.0,061019,000.0,W*76
$GPGGA,170529.303,5420.864,N,01840.163,E,1,12,1.0,0.0,M,0.0,M,,*66
$GPGSA,A,3,01,02,03,04,05,06,07,08,09,10,11,12,1.0,1.0,1.0*30
$GPRMC,170529.303,A,5420.864,N,01840.163,E,000.0,000.0,061019,000.0,W*7D
$GPGGA,170530.303,5420.864,N,01840.163,E,1,12,1.0,0.0,M,0.0,M,,*6E
$GPGSA,A,3,01,02,03,04,05,06,07,08,09,10,11,12,1.0,1.0,1.0*30
$GPRMC,170530.303,A,5420.864,N,01840.163,E,000.0,000.0,061019,000.0,W*75
$GPGGA,170531.303,5420.864,N,01840.163,E,1,12,1.0,0.0,M,0.0,M,,*6F
$GPGSA,A,3,01,02,03,04,05,06,07,08,09,10,11,12,1.0,1.0,1.0*30
$GPRMC,170531.303,A,5420.864,N,01840.163,E,000.4,270.0,061019,000.0,W*75
$GPGGA,170532.303,5420.864,N,01840.163,E,1,12,1.0,0.0,M,0.0,M,,*6C
$GPGSA,A,3,01,02,03,04,05,06,07,08,09,10,11,12,1.0,1.0,1.0*30
$GPRMC,170532.303,A,5420.864,N,01840.163,E,000.3,180.0,061019,000.0,W*7D
$GPGGA,170533.303,5420.864,N,01840.163,E,1,12,1.0,0.0,M,0.0,M,,*6D
$GPGSA,A,3,01,02,03,04,05,06,07,08,09,10,11,12,1.0,1.0,1.0*30
$GPRMC,170533.303,A,5420.864,N,01840.163,E,000.0,000.0,061019,000.0,W*76
$GPGGA,170534.303,5420.864,N,01840.163,E,1,12,1.0,0.0,M,0.0,M,,*6A
$GPGSA,A,3,01,02,03,04,05,06,07,08,09,10,11,12,1.0,1.0,1.0*30
$GPRMC,170534.303,A,5420.864,N,01840.163,E,000.0,000.0,061019,000.0,W*71
$GPGGA,170535.303,5420.864,N,01840.163,E,1,12,1.0,0.0,M,0.0,M,,*6B
$GPGSA,A,3,01,02,03,04,05,06,07,08,09,10,11,12,1.0,1.0,1.0*30
$GPRMC,170535.303,A,5420.864,N,01840.163,E,000.0,000.0,061019,000.0,W*70
$GPGGA,170536.303,5420.864,N,01840.163,E,1,12,1.0,0.0,M,0.0,M,,*68
$GPGSA,A,3,01,02,03,04,05,06,07,08,09,10,11,12,1.0,1.0,1.0*30
$GPRMC,170536.303,A,5420.864,N,01840.163,E,000.0,000.0,061019,000.0,W*73
$GPGGA,170537.303,5420.864,N,01840.163,E,1,12,1.0,0.0,M,0.0,M,,*69
$GPGSA,A,3,01,02,03,04,05,06,07,08,09,10,11,12,1.0,1.0,1.0*30
$GPRMC,170537.303,A,5420.864,N,01840.163,E,000.0,000.0,061019,000.0,W*72
$GPGGA,170538.303,5420.864,N,01840.163,E,1,12,1.0,0.0,M,0.0,M,,*66
$GPGSA,A,3,01,02,03,04,05,06,07,08,09,10,11,12,1.0,1.0,1.0*30
$GPRMC,170538.303,A,5420.864,N,01840.163,E,000.0,000.0,061019,000.0,W*7D
$GPGGA,170539.303,5420.864,N,01840.163,E,1,12,1.0,0.0,M,0.0,M,,*67
$GPGSA,A,3,01,02,03,04,05,06,07,08,09,10,11,12,1.0,1.0,1.0*30
$GPRMC,170539.303,A,5420.864,N,01840.163,E,000.0,000.0,061019,000.0,W*7C
$GPGGA,170540.303,5420.864,N,01840.163,E,1,12,1.0,0.0,M,0.0,M,,*69
$GPGSA,A,3,01,02,03,04,05,06,07,08,09,10,11,12,1.0,1.0,1.0*30
$GPRMC,170540.303,A,5420.864,N,01840.163,E,000.3,090.0,061019,000.0,W*78
$GPGGA,170541.303,5420.864,N,01840.163,E,1,12,1.0,0.0,M,0.0,M,,*68
$GPGSA,A,3,01,02,03,04,05,06,07,08,09,10,11,12,1.0,1.0,1.0*30
$GPRMC,170541.303,A,5420.864,N,01840.163,E,000.0,000.0,061019,000.0,W*73
$GPGGA,170542.303,5420.864,N,01840.163,E,1,12,1.0,0.0,M,0.0,M,,*6B
$GPGSA,A,3,01,02,03,04,05,06,07,08,09,10,11,12,1.0,1.0,1.0*30
$GPRMC,170542.303,A,5420.864,N,01840.163,E,000.0,000.0,061019,000.0,W*70
$GPGGA,170543.303,5420.864,N,01840.163,E,1,12,1.0,0.0,M,0.0,M,,*6A
$GPGSA,A,3,01,02,03,04,05,06,07,08,09,10,11,12,1.0,1.0,1.0*30
$GPRMC,170543.303,A,5420.864,N,01840.163,E,000.3,000.0,061019,000.0,W*72
$GPGGA,170544.303,5420.864,N,01840.163,E,1,12,1.0,0.0,M,0.0,M,,*6D
$GPGSA,A,3,01,02,03,04,05,06,07,08,09,10,11,12,1.0,1.0,1.0*30
$GPRMC,170544.303,A,5420.864,N,01840.163,E,000.0,000.0,061019,000.0,W*76
$GPGGA,170545.303,5420.864,N,01840.163,E,1,12,1.0,0.0,M,0.0,M,,*6C
$GPGSA,A,3,01,02,03,04,05,06,07,08,09,10,11,12,1.0,1.0,1.0*30
$GPRMC,170545.303,A,5420.864,N,01840.163,E,000.3,000.0,061019,000.0,W*74
$GPGGA,170546.303,5420.864,N,01840.163,E,1,12,1.0,0.0,M,0.0,M,,*6F
$GPGSA,A,3,01,02,03,04,05,06,07,08,09,10,11,12,1.0,1.0,1.0*30
$GPRMC,170546.303,A,5420.864,N,01840.163,E,000.4,000.0,061019,000.0,W*70
$GPGGA,170547.303,5420.864,N,01840.163,E,1,12,1.0,0.0,M,0.0,M,,*6E
$GPGSA,A,3,01,02,03,04,05,06,07,08,09,10,11,12,1.0,1.0,1.0*30
$GPRMC,170547.303,A,5420.864,N,01840.163,E,000.0,000.0,061019,000.0,W*75
$GPGGA,170548.303,5420.864,N,01840.163,E,1,12,1.0,0.0,M,0.0,M,,*61
$GPGSA,A,3,01,02,03,04,05,06,07,08,09,10,11,12,1.0,1.0,1.0*30
$GPRMC,170548.303,A,5420.864,N,01840.163,E,000.0,000.0,061019,000.0,W*7A
$GPGGA,170549.303,5420.864,N,01840.163,E,1,12,1.0,0.0,M,0.0,M,,*60
$GPGSA,A,3,01,02,03,04,05,06,07,08,09,10,11,12,1.0,1.0,1.0*30
$GPRMC,170549.303,A,5420.864,N,01840.163,E,000.0,000.0,061019,000.0,W*7B
$GPGGA,170550.303,5420.864,N,01840.163,E,1,12,1.0,0.0,M,0.0,M,,*68
$GPGSA,A,3,01,02,03,04,05,06,07,08,09,10,11,12,1.0,1.0,1.0*30
$GPRMC,170550.303,A,5420.864,N,01840.163,E,000.0,000.0,061019,000.0,W*73
$GPGGA,170551.303,5420.864,N,01840.163,E,1,12,1.0,0.0,M,0.0,M,,*69
$GPGSA,A,3,01,02,03,04,05,06,07,08,09,10,11,12,1.0,1.0,1.0*30
$GPRMC,170551.303,A,5420.864,N,01840.163,E,000.4,180.0,061019,000.0,W*7F
$GPGGA,170552.303,5420.864,N,01840.163,E,1,12,1.0,0.0,M,0.0,M,,*6A
$GPGSA,A,3,01,02,03,04,05,06,07,08,09,10,11,12,1.0,1.0,1.0*30
$GPRMC,170552.303,A,5420.864,N,01840.163,E,000.0,000.0,061019,000.0,W*71
$GPGGA,170553.303,5420.864,N,01840.163,E,1,12,1.0,0.0,M,0.0,M,,*6B
$GPGSA,A,3,01,02,03,04,05,06,07,08,09,10,11,12,1.0,1.0,1.0*30
$GPRMC,170553.303,A,5420.864,N,01840.163,E,000.0,000.0,061019,000.0,W*70
$GPGGA,170554.303,5420.864,N,01840.163,E,1,12,1.0,0.0,M,0.0,M,,*6C
$GPGSA,A,3,01,02,03,04,05,06,07,08,09,10,11,12,1.0,1.0,1.0*30
$GPRMC,170554.303,A,5420.864,N,01840.163,E,000.0,000.0,061019,000.0,W*77
$GPGGA,170555.303,5420.864,N,01840.163,E,1,12,1.0,0.0,M,0.0,M,,*6D
$GPGSA,A,3,01,02,03,04,05,06,07,08,09,10,11,12,1.0,1.0,1.0*30
$GPRMC,170555.303,A,5420.864,N,01840.163,E,000.0,000.0,061019,000.0,W*76
$GPGGA,170556.303,5420.864,N,01840.163,E,1,12,1.0,0.0,M,0.0,M,,*6E
$GPGSA,A,3,01,02,03,04,05,06,07,08,09,10,11,12,1.0,1.0,1.0*30
$GPRMC,170556.303,A,5420.864,N,01840.163,E,000.0,000.0,061019,000.0,W*75
$GPGGA,170557.303,5420.864,N,01840.163,E,1,12,1.0,0.0,M,0.0,M,,*6F
$GPGSA,A,3,01,02,03,04,05,06,07,08,09,10,11,12,1.0,1.0,1.0*30
$GPRMC,170557.303,A,5420.864,N,01840.163,E,000.0,000.0,061019,000.0,W*74
$GPGGA,170558.303,5420.864,N,01840.163,E,1,12,1.0,0.0,M,0.0,M,,*60
$GPGSA,A,3,01,02,03,04,05,06,07,08,09,10,11,12,1.0,1.0,1.0*30
$GPRMC,170558.303,A,5420.864,N,01840.163,E,000.0,000.0,061019,000.0,W*7B
$GPGGA,170559.303,5420.864,N,01840.163,E,1,12,1.0,0.0,M,0.0,M,,*61
$GPGSA,A,3,01,02,03,04,05,06,07,08,09,10,11,12,1.0,1.0,1.0*30
$GPRMC,170559.303,A,5420.864,N,01840.163,E,000.0,000.0,061019,000.0,W*7A
$GPGGA,170600.303,5420.864,N,01840.163,E,1,12,1.0,0.0,M,0.0,M,,*6E
$GPGSA,A,3,01,02,03,04,05,06,07,08,09,10,11,12,1.0,1.0,1.0*30
$GPRMC,170600.303,A,5420.864,N,01840.163,E,000.0,000.0,061019,000.0,W*75
$GPGGA,170601.303,5420.864,N,01840.163,E,1,12,1.0,0.0,M,0.0,M,,*6F
$GPGSA,A,3,01,02,03,04,05,06,07,08,09,10,11,12,1.0,1.0,1.0*30
$GPRMC,170601.303,A,5420.864,N,01840.163,E,000.0,000.0,061019,000.0,W*74
$GPGGA,170602.303,5420.864,N,01840.163,E,1,12,1.0,0.0,M,0.0,M,,*6C
$GPGSA,A,3,01,02,03,04,05,06,07,08,09,10,11,12,1.0,1.0,1.0*30
$GPRMC,170602.303,A,5420.864,N,01840.163,E,000.0,000.0,061019,000.0,W*77
$GPGGA,170603.303,5420.864,N,01840.163,E,1,12,1.0,0.0,M,0.0,M,,*6D
$GPGSA,A,3,01,02,03,04,05,06,07,08,09,10,11,12,1.0,1.0,1.0*30
$GPRMC,170603.303,A,5420.864,N,01840.163,E,000.0,000.0,061019,000.0,W*76
$GPGGA,170604.303,5420.864,N,01840.163,E,1,12,1.0,0.0,M,0.0,M,,*6A
$GPGSA,A,3,01,02,03,04,05,06,07,08,09,10,11,12,1.0,1.0,1.0*30
$GPRMC,170604.303,A,5420.864,N,01840.163,E,000.0,000.0,061019,000.0,W*71
$GPGGA,170605.303,5420.864,N,01840.163,E,1,12,1.0,0.0,M,0.0,M,,*6B
$GPGSA,A,3,01,02,03,04,05,06,07,08,09,10,11,12,1.0,1.0,1.0*30
$GPRMC,170605.303,A,5420.864,N,01840.163,E,000.0,000.0,061019,000.0,W*70
$GPGGA,170606.303,5420.864,N,01840.163,E,1,12,1.0,0.0,M,0.0,M,,*68
$GPGSA,A,3,01,02,03,04,05,06,07,08,09,10,11,12,1.0,1.0,1.0*30
$GPRMC,170606.303,A,5420.864,N,01840.163,E,000.0,000.0,061019,000.0,W*73
$GPGGA,170607.303,5420.864,N,01840.163,E,1,12,1.0,0.0,M,0.0,M,,*69
$GPGSA,A,3,01,02,03,04,05,06,07,08,09,10,11,12,1.0,1.0,1.0*30
$GPRMC,170607.303,A,5420.864,N,01840.163,E,000.0,000.0,061019,000.0,W*72
$GPGGA,170608.303,5420.864,N,01840.163,E,1,12,1.0,0.0,M,0.0,M,,*66
$GPGSA,A,3,01,02,03,04,05,06,07,08,09,10,11,12,1.0,1.0,1.0*30
$GPRMC,170608.303,A,5420.864,N,01840.163,E,000.0,000.0,061019,000.0,W*7D
$GPGGA,170609.303,5420.864,N,01840.163,E,1,12,1.0,0.0,M,0.0,M,,*67
$GPGSA,A,3,01,02,03,04,05,06,07,08,09,10,11,12,1.0,1.0,1.0*30
$GPRMC,170609.303,A,5420.864,N,01840.163,E,001.7,198.9,061019,000.0,W*73
$GPGGA,170610.303,5420.864,N,01840.163,E,1,12,1.0,0.0,M,0.0,M,,*6F
$GPGSA,A,3,01,02,03,04,05,06,07,08,09,10,11,12,1.0,1.0,1.0*30
$GPRMC,170610.303,A,5420.864,N,01840.163,E,005.0,211.4,061019,000.0,W*77
$GPGGA,170611.303,5420.862,N,01840.162,E,1,12,1.0,0.0,M,0.0,M,,*69
$GPGSA,A,3,01,02,03,04,05,06,07,08,09,10,11,12,1.0,1.0,1.0*30
$GPRMC,170611.303,A,5420.862,N,01840.162,E,004.2,203.1,061019,000.0,W*74
$GPGGA,170612.303,5420.861,N,01840.161,E,1,12,1.0,0.0,M,0.0,M,,*6A
$GPGSA,A,3,01,02,03,04,05,06,07,08,09,10,11,12,1.0,1.0,1.0*30
$GPRMC,170612.303,A,5420.861,N,01840.161,E,003.7,188.8,061019,000.0,W*7C
$GPGGA,170613.303,5420.860,N,01840.161,E,1,12,1.0,0.0,M,0.0,M,,*6A
$GPGSA,A,3,01,02,03,04,05,06,07,08,09,10,11,12,1.0,1.0,1.0*30
$GPRMC,170613.303,A,5420.860,N,01840.161,E,005.7,208.1,061019,000.0,W*78
$GPGGA,170614.303,5420.859,N,01840.160,E,1,12,1.0,0.0,M,0.0,M,,*66
$GPGSA,A,3,01,02,03,04,05,06,07,08,09,10,11,12,1.0,1.0,1.0*30
$GPRMC,170614.303,A,5420.859,N,01840.160,E,008.4,203.1,061019,000.0,W*71
$GPGGA,170615.303,5420.856,N,01840.159,E,1,12,1.0,0.0,M,0.0,M,,*62
$GPGSA,A,3,01,02,03,04,05,06,07,08,09,10,11,12,1.0,1.0,1.0*30
$GPRMC,170615.303,A,5420.856,N,01840.159,E,008.3,199.6,061019,000.0,W*75
$GPGGA,170616.303,5420.854,N,01840.159,E,1,12,1.0,0.0,M,0.0,M,,*63
$GPGSA,A,3,01,02,03,04,05,06,07,08,09,10,11,12,1.0,1.0,1.0*30
$GPRMC,170616.303,A,5420.854,N,01840.159,E,009.8,206.0,061019,000.0,W*7D
$GPGGA,170617.303,5420.851,N,01840.157,E,1,12,1.0,0.0,M,0.0,M,,*69
$GPGSA,A,3,01,02,03,04,05,06,07,08,09,10,11,12,1.0,1.0,1.0*30
$GPRMC,170617.303,A,5420.851,N,01840.157,E,009.8,203.1,061019,000.0,W*73
$GPGGA,170618.303,5420.849,N,01840.156,E,1,12,1.0,0.0,M,0.0,M,,*6E
$GPGSA,A,3,01,02,03,04,05,06,07,08,09,10,11,12,1.0,1.0,1.0*30
$GPRMC,170618.303,A,5420.849,N,01840.156,E,010.5,204.5,061019,000.0,W*72
$GPGGA,170619.303,5420.846,N,01840.155,E,1,12,1.0,0.0,M,0.0,M,,*63
$GPGSA,A,3,01,02,03,04,05,06,07,08,09,10,11,12,1.0,1.0,1.0*30
$GPRMC,170619.303,A,5420.846,N,01840.155,E,010.3,198.9,061019,000.0,W*73
$GPGGA,170620.303,5420.843,N,01840.154,E,1,12,1.0,0.0,M,0.0,M,,*6D
$GPGSA,A,3,01,02,03,04,05,06,07,08,09,10,11,12,1.0,1.0,1.0*30
$GPRMC,170620.303,A,5420.843,N,01840.154,E,010.3,207.9,061019,000.0,W*78
$GPGGA,170621.303,5420.840,N,01840.152,E,1,12,1.0,0.0,M,0.0,M,,*69
$GPGSA,A,3,01,02,03,04,05,06,07,08,09,10,11,12,1.0,1.0,1.0*30
$GPRMC,170621.303,A,5420.840,N,01840.152,E,009.6,209.7,061019,000.0,W*71
$GPGGA,170622.303,5420.838,N,01840.151,E,1,12,1.0,0.0,M,0.0,M,,*66
$GPGSA,A,3,01,02,03,04,05,06,07,08,09,10,11,12,1.0,1.0,1.0*30
$GPRMC,170622.303,A,5420.838,N,01840.151,E,010.1,202.4,061019,000.0,W*79
$GPGGA,170623.303,5420.835,N,01840.150,E,1,12,1.0,0.0,M,0.0,M,,*6B
$GPGSA,A,3,01,02,03,04,05,06,07,08,09,10,11,12,1.0,1.0,1.0*30
$GPRMC,170623.303,A,5420.835,N,01840.150,E,010.6,207.1,061019,000.0,W*73
$GPGGA,170624.303,5420.832,N,01840.148,E,1,12,1.0,0.0,M,0.0,M,,*62
$GPGSA,A,3,01,02,03,04,05,06,07,08,09,10,11,12,1.0,1.0,1.0*30
$GPRMC,170624.303,A,5420.832,N,01840.148,E,009.7,200.1,061019,000.0,W*74
$GPGGA,170625.303,5420.830,N,01840.147,E,1,12,1.0,0.0,M,0.0,M,,*6E
$GPGSA,A,3,01,02,03,04,05,06,07,08,09,10,11,12,1.0,1.0,1.0*30
$GPRMC,170625.303,A,5420.830,N,01840.147,E,010.1,202.4,061019,000.0,W*71
$GPGGA,170626.303,5420.827,N,01840.146,E,1,12,1.0,0.0,M,0.0,M,,*6A
$GPGSA,A,3,01,02,03,04,05,06,07,08,09,10,11,12,1.0,1.0,1.0*30
$GPRMC,170626.303,A,5420.827,N,01840.146,E,010.2,205.2,061019,000.0,W*77
$GPGGA,170627.303,5420.824,N,01840.145,E,1,12,1.0,0.0,M,0.0,M,,*6B
$GPGSA,A,3,01,02,03,04,05,06,07,08,09,10,11,12,1.0,1.0,1.0*30
$GPRMC,170627.303,A,5420.824,N,01840.145,E,010.3,198.9,061019,000.0,W*7B
$GPGGA,170628.303,5420.822,N,01840.144,E,1,12,1.0,0.0,M,0.0,M,,*63
$GPGSA,A,3,01,02,03,04,05,06,07,08,09,10,11,12,1.0,1.0,1.0*30
$GPRMC,170628.303,A,5420.822,N,01840.144,E,009.2,207.7,061019,000.0,W*71
$GPGGA,170629.303,5420.819,N,01840.143,E,1,12,1.0,0.0,M,0.0,M,,*6D
$GPGSA,A,3,01,02,03,04,05,06,07,08,09,10,11,12,1.0,1.0,1.0*30
$GPRMC,170629.303,A,5420.819,N,01840.143,E,010.5,204.5,061019,000.0,W*71
$GPGGA,170630.303,5420.816,N,01840.142,E,1,12,1.0,0.0,M,0.0,M,,*6B
$GPGSA,A,3,01,02,03,04,05,06,07,08,09,10,11,12,1.0,1.0,1.0*30
$GPRMC,170630.303,A,5420.816,N,01840.142,E,010.7,209.7,061019,000.0,W*7A
$GPGGA,170631.303,5420.813,N,01840.140,E,1,12,1.0,0.0,M,0.0,M,,*6D
$GPGSA,A,3,01,02,03,04,05,06,07,08,09,10,11,12,1.0,1.0,1.0*30
$GPRMC,170631.303,A,5420.813,N,01840.140,E,010.8,203.8,061019,000.0,W*76
$GPGGA,170632.303,5420.811,N,01840.139,E,1,12,1.0,0.0,M,0.0,M,,*62
$GPGSA,A,3,01,02,03,04,05,06,07,08,09,10,11,12,1.0,1.0,1.0*30
$GPRMC,170632.303,A,5420.811,N,01840.139,E,010.5,204.5,061019,000.0,W*7E
$GPGGA,170633.303,5420.808,N,01840.137,E,1,12,1.0,0.0,M,0.0,M,,*65
$GPGSA,A,3,01,02,03,04,05,06,07,08,09,10,11,12,1.0,1.0,1.0*30
$GPRMC,170633.303,A,5420.808,N,01840.137,E,011.2,205.7,061019,000.0,W*7C
$GPGGA,170634.303,5420.805,N,01840.136,E,1,12,1.0,0.0,M,0.0,M,,*6E
$GPGSA,A,3,01,02,03,04,05,06,07,08,09,10,11,12,1.0,1.0,1.0*30
$GPRMC,170634.303,A,5420.805,N,01840.136,E,011.0,197.8,061019,000.0,W*72
$GPGGA,170635.303,5420.802,N,01840.135,E,1,12,1.0,0.0,M,0.0,M,,*6B
$GPGSA,A,3,01,02,03,04,05,06,07,08,09,10,11,12,1.0,1.0,1.0*30
$GPRMC,170635.303,A,5420.802,N,01840.135,E,010.8,203.8,061019,000.0,W*70
$GPGGA,170636.303,5420.799,N,01840.134,E,1,12,1.0,0.0,M,0.0,M,,*64
$GPGSA,A,3,01,02,03,04,05,06,07,08,09,10,11,12,1.0,1.0,1.0*30
$GPRMC,170636.303,A,5420.799,N,01840.134,E,010.8,212.1,061019,000.0,W*76
$GPGGA,170637.303,5420.796,N,01840.132,E,1,12,1.0,0.0,M,0.0,M,,*6C
$GPGSA,A,3,01,02,03,04,05,06,07,08,09,10,11,12,1.0,1.0,1.0*30
$GPRMC,170637.303,A,5420.796,N,01840.132,E,010.7,201.1,061019,000.0,W*73
$GPGGA,170638.303,5420.793,N,01840.131,E,1,12,1.0,0.0,M,0.0,M,,*65
$GPGSA,A,3,01,02,03,04,05,06,07,08,09,10,11,12,1.0,1.0,1.0*30
$GPRMC,170638.303,A,5420.793,N,01840.131,E,010.6,207.1,061019,000.0,W*7D
$GPGGA,170639.303,5420.790,N,01840.129,E,1,12,1.0,0.0,M,0.0,M,,*6E
$GPGSA,A,3,01,02,03,04,05,06,07,08,09,10,11,12,1.0,1.0,1.0*30
$GPRMC,170639.303,A,5420.790,N,01840.129,E,009.8,206.0,061019,000.0,W*70
$GPGGA,170640.303,5420.788,N,01840.128,E,1,12,1.0,0.0,M,0.0,M,,*68
$GPGSA,A,3,01,02,03,04,05,06,07,08,09,10,11,12,1.0,1.0,1.0*30
$GPRMC,170640.303,A,5420.788,N,01840.128,E,011.6,205.0,061019,000.0,W*72
$GPGGA,170641.303,5420.785,N,01840.127,E,1,12,1.0,0.0,M,0.0,M,,*6B
$GPGSA,A,3,01,02,03,04,05,06,07,08,09,10,11,12,1.0,1.0,1.0*30
$GPRMC,170641.303,A,5420.785,N,01840.127,E,012.6,205.4,061019,000.0,W*76
$GPGGA,170642.303,5420.781,N,01840.125,E,1,12,1.0,0.0,M,0.0,M,,*6E
$GPGSA,A,3,01,02,03,04,05,06,07,08,09,10,11,12,1.0,1.0,1.0*30
$GPRMC,170642.303,A,5420.781,N,01840.125,E,010.0,211.4,061019,000.0,W*72
$GPGGA,170643.303,5420.779,N,01840.123,E,1,12,1.0,0.0,M,0.0,M,,*6E
$GPGSA,A,3,01,02,03,04,05,06,07,08,09,10,11,12,1.0,1.0,1.0*30
$GPRMC,170643.303,A,5420.779,N,01840.123,E,011.1,211.2,061019,000.0,W*74
$GPGGA,170644.303,5420.776,N,01840.122,E,1,12,1.0,0.0,M,0.0,M,,*67
$GPGSA,A,3,01,02,03,04,05,06,07,08,09,10,11,12,1.0,1.0,1.0*30
$GPRMC,170644.303,A,5420.776,N,01840.122,E,010.5,212.9,061019,000.0,W*70
$GPGGA,170645.303,5420.773,N,01840.120,E,1,12,1.0,0.0,M,0.0,M,,*61
$GPGSA,A,3,01,02,03,04,05,06,07,08,09,10,11,12,1.0,1.0,1.0*30
$GPRMC,170645.303,A,5420.773,N,01840.120,E,010.6,215.2,061019,000.0,W*79
$GPGGA,170646.303,5420.770,N,01840.118,E,1,12,1.0,0.0,M,0.0,M,,*6A
$GPGSA,A,3,01,02,03,04,05,06,07,08,09,10,11,12,1.0,1.0,1.0*30
$GPRMC,170646.303,A,5420.770,N,01840.118,E,010.6,215.2,061019,000.0,W*72
$GPGGA,170647.303,5420.767,N,01840.116,E,1,12,1.0,0.0,M,0.0,M,,*63
$GPGSA,A,3,01,02,03,04,05,06,07,08,09,10,11,12,1.0,1.0,1.0*30
$GPRMC,170647.303,A,5420.767,N,01840.116,E,010.3,207.9,061019,000.0,W*76
$GPGGA,170648.303,5420.765,N,01840.114,E,1,12,1.0,0.0,M,0.0,M,,*6C
$GPGSA,A,3,01,02,03,04,05,06,07,08,09,10,11,12,1.0,1.0,1.0*30
$GPRMC,170648.303,A,5420.765,N,01840.114,E,010.8,227.1,061019,000.0,W*78
$GPGGA,170649.303,5420.762,N,01840.112,E,1,12,1.0,0.0,M,0.0,M,,*6C
$GPGSA,A,3,01,02,03,04,05,06,07,08,09,10,11,12,1.0,1.0,1.0*30
$GPRMC,170649.303,A,5420.762,N,01840.112,E,010.9,219.5,061019,000.0,W*70
$GPGGA,170650.303,5420.760,N,01840.109,E,1,12,1.0,0.0,M,0.0,M,,*6C
$GPGSA,A,3,01,02,03,04,05,06,07,08,09,10,11,12,1.0,1.0,1.0*30
$GPRMC,170650.303,A,5420.760,N,01840.109,E,011.3,220.5,061019,000.0,W*71
$GPGGA,170651.303,5420.757,N,01840.107,E,1,12,1.0,0.0,M,0.0,M,,*67
$GPGSA,A,3,01,02,03,04,05,06,07,08,09,10,11,12,1.0,1.0,1.0*30
$GPRMC,170651.303,A,5420.757,N,01840.107,E,011.2,218.6,061019,000.0,W*73
$GPGGA,170652.303,5420.754,N,01840.105,E,1,12,1.0,0.0,M,0.0,M,,*65
$GPGSA,A,3,01,02,03,04,05,06,07,08,09,10,11,12,1.0,1.0,1.0*30
$GPRMC,170652.303,A,5420.754,N,01840.105,E,011.5,226.7,061019,000.0,W*7A
$GPGGA,170653.303,5420.751,N,01840.102,E,1,12,1.0,0.0,M,0.0,M,,*66
$GPGSA,A,3,01,02,03,04,05,06,07,08,09,10,11,12,1.0,1.0,1.0*30
$GPRMC,170653.303,A,5420.751,N,01840.102,E,010.7,229.8,061019,000.0,W*7A
$GPGGA,170654.303,5420.749,N,01840.099,E,1,12,1.0,0.0,M,0.0,M,,*6B
$GPGSA,A,3,01,02,03,04,05,06,07,08,09,10,11,12,1.0,1.0,1.0*30
$GPRMC,170654.303,A,5420.749,N,01840.099,E,011.2,230.2,061019,000.0,W*71
$GPGGA,170655.303,5420.746,N,01840.096,E,1,12,1.0,0.0,M,0.0,M,,*6A
$GPGSA,A,3,01,02,03,04,05,06,07,08,09,10,11,12,1.0,1.0,1.0*30
$GPRMC,170655.303,A,5420.746,N,01840.096,E,011.7,228.2,061019,000.0,W*7C
$GPGGA,170656.303,5420.743,N,01840.093,E,1,12,1.0,0.0,M,0.0,M,,*69
$GPGSA,A,3,01,02,03,04,05,06,07,08,09,10,11,12,1.0,1.0,1.0*30
$GPRMC,170656.303,A,5420.743,N,01840.093,E,012.2,234.5,061019,000.0,W*73
$GPGGA,170657.303,5420.741,N,01840.089,E,1,12,1.0,0.0,M,0.0,M,,*61
$GPGSA,A,3,01,02,03,04,05,06,07,08,09,10,11,12,1.0,1.0,1.0*30
$GPRMC,170657.303,A,5420.741,N,01840.089,E,011.2,238.6,061019,000.0,W*77
$GPGGA,170658.303,5420.739,N,01840.085,E,1,12,1.0,0.0,M,0.0,M,,*6D
$GPGSA,A,3,01,02,03,04,05,06,07,08,09,10,11,12,1.0,1.0,1.0*30
$GPRMC,170658.303,A,5420.739,N,01840.085,E,010.0,239.6,061019,000.0,W*79
$GPGGA,170659.303,5420.737,N,01840.082,E,1,12,1.0,0.0,M,0.0,M,,*65
$GPGSA,A,3,01,02,03,04,05,06,07,08,09,10,11,12,1.0,1.0,1.0*30
$GPRMC,170659.303,A,5420.737,N,01840.082,E,011.3,236.4,061019,000.0,W*7E
$GPGGA,170700.303,5420.734,N,01840.079,E,1,12,1.0,0.0,M,0.0,M,,*6F
$GPGSA,A,3,01,02,03,04,05,06,07,08,09,10,11,12,1.0,1.0,1.0*30
$GPRMC,170700.303,A,5420.734,N,01840.079,E,012.0,241.6,061019,000.0,W*76
$GPGGA,170701.303,5420.732,N,01840.074,E,1,12,1.0,0.0,M,0.0,M,,*65
$GPGSA,A,3,01,02,03,04,05,06,07,08,09,10,11,12,1.0,1.0,1.0*30
$GPRMC,170701.303,A,5420.732,N,01840.074,E,012.2,242.5,061019,000.0,W*7E
$GPGGA,170702.303,5420.730,N,01840.070,E,1,12,1.0,0.0,M,0.0,M,,*60
$GPGSA,A,3,01,02,03,04,05,06,07,08,09,10,11,12,1.0,1.0,1.0*30
$GPRMC,170702.303,A,5420.730,N,01840.070,E,011.7,240.7,061019,000.0,W*7D
$GPGGA,170703.303,5420.728,N,01840.066,E,1,12,1.0,0.0,M,0.0,M,,*6F
$GPGSA,A,3,01,02,03,04,05,06,07,08,09,10,11,12,1.0,1.0,1.0*30
$GPRMC,170703.303,A,5420.728,N,01840.066,E,011.7,242.6,061019,000.0,W*71
$GPGGA,170704.303,5420.725,N,01840.062,E,1,12,1.0,0.0,M,0.0,M,,*61
$GPGSA,A,3,01,02,03,04,05,06,07,08,09,10,11,12,1.0,1.0,1.0*30
$GPRMC,170704.303,A,5420.725,N,01840.062,E,013.0,246.5,061019,000.0,W*7D
$GPGGA,170705.303,5420.723,N,01840.057,E,1,12,1.0,0.0,M,0.0,M,,*60
$GPGSA,A,3,01,02,03,04,05,06,07,08,09,10,11,12,1.0,1.0,1.0*30
$GPRMC,170705.303,A,5420.723,N,01840.057,E,011.8,246.3,061019,000.0,W*70
$GPGGA,170706.303,5420.721,N,01840.052,E,1,12,1.0,0.0,M,0.0,M,,*64
$GPGSA,A,3,01,02,03,04,05,06,07,08,09,10,11,12,1.0,1.0,1.0*30
$GPRMC,170706.303,A,5420.721,N,01840.052,E,011.2,247.6,061019,000.0,W*7A
$GPGGA,170707.303,5420.719,N,01840.048,E,1,12,1.0,0.0,M,0.0,M,,*65
$GPGSA,A,3,01,02,03,04,05,06,07,08,09,10,11,12,1.0,1.0,1.0*30
$GPRMC,170707.303,A,5420.719,N,01840.048,E,011.0,248.7,061019,000.0,W*77
$GPGGA,170708.303,5420.718,N,01840.044,E,1,12,1.0,0.0,M,0.0,M,,*67
$GPGSA,A,3,01,02,03,04,05,06,07,08,09,10,11,12,1.0,1.0,1.0*30
$GPRMC,170708.303,A,5420.718,N,01840.044,E,011.7,251.6,061019,000.0,W*7B
$GPGGA,170709.303,5420.716,N,01840.039,E,1,12,1.0,0.0,M,0.0,M,,*62
$GPGSA,A,3,01,02,03,04,05,06,07,08,09,10,11,12,1.0,1.0,1.0*30
$GPRMC,170709.303,A,5420.716,N,01840.039,E,012.1,253.7,061019,000.0,W*78
$GPGGA,170710.303,5420.715,N,01840.034,E,1,12,1.0,0.0,M,0.0,M,,*64
$GPGSA,A,3,01,02,03,04,05,06,07,08,09,10,11,12,1.0,1.0,1.0*30
$GPRMC,170710.303,A,5420.715,N,01840.034,E,011.2,252.1,061019,000.0,W*79
$GPGGA,170711.303,5420.713,N,01840.029,E,1,12,1.0,0.0,M,0.0,M,,*6F
$GPGSA,A,3,01,02,03,04,05,06,07,08,09,10,11,12,1.0,1.0,1.0*30
$GPRMC,170711.303,A,5420.713,N,01840.029,E,011.4,256.2,061019,000.0,W*73
$GPGGA,170712.303,5420.712,N,01840.024,E,1,12,1.0,0.0,M,0.0,M,,*60
$GPGSA,A,3,01,02,03,04,05,06,07,08,09,10,11,12,1.0,1.0,1.0*30
$GPRMC,170712.303,A,5420.712,N,01840.024,E,010.6,253.7,061019,000.0,W*7F
$GPGGA,170713.303,5420.711,N,01840.020,E,1,12,1.0,0.0,M,0.0,M,,*66
$GPGSA,A,3,01,02,03,04,05,06,07,08,09,10,11,12,1.0,1.0,1.0*30
$GPRMC,170713.303,A,5420.711,N,01840.020,E,012.1,256.0,061019,000.0,W*7E
$GPGGA,170714.303,5420.709,N,01840.014,E,1,12,1.0,0.0,M,0.0,M,,*6F
$GPGSA,A,3,01,02,03,04,05,06,07,08,09,10,11,12,1.0,1.0,1.0*30
$GPRMC,170714.303,A,5420.709,N,01840.014,E,012.3,257.4,061019,000.0,W*70
$GPGGA,170715.303,5420.708,N,01840.009,E,1,12,1.0,0.0,M,0.0,M,,*63
$GPGSA,A,3,01,02,03,04,05,06,07,08,09,10,11,12,1.0,1.0,1.0*30
$GPRMC,170715.303,A,5420.708,N,01840.009,E,011.0,259.3,061019,000.0,W*75
$GPGGA,170716.303,5420.707,N,01840.004,E,1,12,1.0,0.0,M,0.0,M,,*62
$GPGSA,A,3,01,02,03,04,05,06,07,08,09,10,11,12,1.0,1.0,1.0*30
$GPRMC,170716.303,A,5420.707,N,01840.004,E,012.7,256.8,061019,000.0,W*74
$GPGGA,170717.303,5420.706,N,01839.998,E,1,12,1.0,0.0,M,0.0,M,,*60
$GPGSA,A,3,01,02,03,04,05,06,07,08,09,10,11,12,1.0,1.0,1.0*30
$GPRMC,170717.303,A,5420.706,N,01839.998,E,013.5,256.6,061019,000.0,W*7B
$GPGGA,170718.303,5420.704,N,01839.992,E,1,12,1.0,0.0,M,0.0,M,,*67
$GPGSA,A,3,01,02,03,04,05,06,07,08,09,10,11,12,1.0,1.0,1.0*30
$GPRMC,170718.303,A,5420.704,N,01839.992,E,011.4,256.2,061019,000.0,W*7B
$GPGGA,170719.303,5420.703,N,01839.987,E,1,12,1.0,0.0,M,0.0,M,,*65
$GPGSA,A,3,01,02,03,04,05,06,07,08,09,10,11,12,1.0,1.0,1.0*30
$GPRMC,170719.303,A,5420.703,N,01839.987,E,010.9,256.8,061019,000.0,W*7F
$GPGGA,170720.303,5420.702,N,01839.982,E,1,12,1.0,0.0,M,0.0,M,,*6B
$GPGSA,A,3,01,02,03,04,05,06,07,08,09,10,11,12,1.0,1.0,1.0*30
$GPRMC,170720.303,A,5420.702,N,01839.982,E,011.2,257.2,061019,000.0,W*70
$GPGGA,170721.303,5420.701,N,01839.977,E,1,12,1.0,0.0,M,0.0,M,,*63
$GPGSA,A,3,01,02,03,04,05,06,07,08,09,10,11,12,1.0,1.0,1.0*30
$GPRMC,170721.303,A,5420.701,N,01839.977,E,011.9,258.0,061019,000.0,W*7E
$GPGGA,170722.303,5420.700,N,01839.972,E,1,12,1.0,0.0,M,0.0,M,,*64
$GPGSA,A,3,01,02,03,04,05,06,07,08,09,10,11,12,1.0,1.0,1.0*30
$GPRMC,170722.303,A,5420.700,N,01839.972,E,011.0,259.3,061019,000.0,W*72
$GPGGA,170723.303,5420.699,N,01839.967,E,1,12,1.0,0.0,M,0.0,M,,*60
$GPGSA,A,3,01,02,03,04,05,06,07,08,09,10,11,12,1.0,1.0,1.0*30
$GPRMC,170723.303,A,5420.699,N,01839.967,E,012.1,259.3,061019,000.0,W*74
$GPGGA,170724.303,5420.698,N,01839.962,E,1,12,1.0,0.0,M,0.0,M,,*63
$GPGSA,A,3,01,02,03,04,05,06,07,08,09,10,11,12,1.0,1.0,1.0*30
$GPRMC,170724.303,A,5420.698,N,01839.962,E,012.4,259.6,061019,000.0,W*77
$GPGGA,170725.303,5420.697,N,01839.956,E,1,12,1.0,0.0,M,0.0,M,,*6A
$GPGSA,A,3,01,02,03,04,05,06,07,08,09,10,11,12,1.0,1.0,1.0*30
$GPRMC,170725.303,A,5420.697,N,01839.956,E,011.9,261.2,061019,000.0,W*7F
$GPGGA,170726.303,5420.696,N,01839.950,E,1,12,1.0,0.0,M,0.0,M,,*6E
$GPGSA,A,3,01,02,03,04,05,06,07,08,09,10,11,12,1.0,1.0,1.0*30
$GPRMC,170726.303,A,5420.696,N,01839.950,E,010.7,259.0,061019,000.0,W*7D
